{"type":"FeatureCollection","features":[{"type":"Feature","id":1,"geometry":{"type":"Point","coordinates":[-122.41801259999994,37.747922900000049]},"properties":{"OBJECTID":1,"Building_Address":"3101 Mission St","Latitude":37.747922899999999,"Longitude":-122.4180126,"Number_of_Voters":81,"Number_of_Phones":32,"Developer":"Bernal Heights Housing Corporation","Match":"Bernal Heights Housing Corporation","Match_1":"YES"}},{"type":"Feature","id":2,"geometry":{"type":"Point","coordinates":[-122.44145989999998,37.715461400000038]},"properties":{"OBJECTID":2,"Building_Address":"5199 Mission St","Latitude":37.715461400000002,"Longitude":-122.4414599,"Number_of_Voters":32,"Number_of_Phones":14,"Developer":"Bernal Heights Housing Corporation","Match":"Bernal Heights Housing Corporation","Match_1":"YES"}},{"type":"Feature","id":3,"geometry":{"type":"Point","coordinates":[-122.41022199999998,37.736801300000025]},"properties":{"OBJECTID":3,"Building_Address":"1000 Tompkins Ave","Latitude":37.736801300000003,"Longitude":-122.410222,"Number_of_Voters":30,"Number_of_Phones":16,"Developer":"Bernal Heights Housing Corporation","Match":"Bernal Heights Housing Corporation","Match_1":"YES"}},{"type":"Feature","id":4,"geometry":{"type":"Point","coordinates":[-122.48886949999996,37.781343100000072]},"properties":{"OBJECTID":4,"Building_Address":"420 29th Ave","Latitude":37.781343100000001,"Longitude":-122.48886950000001,"Number_of_Voters":13,"Number_of_Phones":6,"Developer":"Bernal Heights Housing Corporation","Match":"Bernal Heights Housing Corporation","Match_1":"YES"}},{"type":"Feature","id":5,"geometry":{"type":"Point","coordinates":[-122.42878649999994,37.769979900000067]},"properties":{"OBJECTID":5,"Building_Address":"1 Church St","Latitude":37.769979900000003,"Longitude":-122.4287865,"Number_of_Voters":144,"Number_of_Phones":89,"Developer":"BRIDGE Housing","Match":"Bridge Housing","Match_1":"YES"}},{"type":"Feature","id":6,"geometry":{"type":"Point","coordinates":[-122.45817479999999,37.781137300000069]},"properties":{"OBJECTID":6,"Building_Address":"3595 Geary Blvd","Latitude":37.781137299999997,"Longitude":-122.45817479999999,"Number_of_Voters":130,"Number_of_Phones":65,"Developer":"BRIDGE Housing","Match":"Bridge Housing","Match_1":"YES"}},{"type":"Feature","id":7,"geometry":{"type":"Point","coordinates":[-122.42348009999995,37.775577500000054]},"properties":{"OBJECTID":7,"Building_Address":"333 Fell St","Latitude":37.775577499999997,"Longitude":-122.42348010000001,"Number_of_Voters":116,"Number_of_Phones":58,"Developer":"BRIDGE Housing","Match":"Bridge Housing","Match_1":"YES"}},{"type":"Feature","id":8,"geometry":{"type":"Point","coordinates":[-122.39397739999998,37.726916000000074]},"properties":{"OBJECTID":8,"Building_Address":"5600 3rd St","Latitude":37.726916000000003,"Longitude":-122.3939774,"Number_of_Voters":95,"Number_of_Phones":47,"Developer":"BRIDGE Housing","Match":"Bridge Housing","Match_1":"YES"}},{"type":"Feature","id":9,"geometry":{"type":"Point","coordinates":[-122.39602029999998,37.752111200000058]},"properties":{"OBJECTID":9,"Building_Address":"1101 Connecticut St","Latitude":37.752111200000002,"Longitude":-122.3960203,"Number_of_Voters":79,"Number_of_Phones":54,"Developer":"BRIDGE Housing","Match":"Bridge Housing","Match_1":"YES"}},{"type":"Feature","id":10,"geometry":{"type":"Point","coordinates":[-122.42001439999996,37.765884100000051]},"properties":{"OBJECTID":10,"Building_Address":"1950 Mission St","Latitude":37.765884100000001,"Longitude":-122.4200144,"Number_of_Voters":76,"Number_of_Phones":37,"Developer":"BRIDGE Housing","Match":"Bridge Housing","Match_1":"YES"}},{"type":"Feature","id":11,"geometry":{"type":"Point","coordinates":[-122.45541629999997,37.746706000000074]},"properties":{"OBJECTID":11,"Building_Address":"255 Woodside Ave","Latitude":37.746706000000003,"Longitude":-122.4554163,"Number_of_Voters":70,"Number_of_Phones":38,"Developer":"BRIDGE Housing","Match":"Bridge Housing","Match_1":"YES"}},{"type":"Feature","id":12,"geometry":{"type":"Point","coordinates":[-122.40740309999995,37.780618100000027]},"properties":{"OBJECTID":12,"Building_Address":"474 Natoma St","Latitude":37.780618099999998,"Longitude":-122.4074031,"Number_of_Voters":58,"Number_of_Phones":36,"Developer":"BRIDGE Housing","Match":"Bridge Housing","Match_1":"YES"}},{"type":"Feature","id":13,"geometry":{"type":"Point","coordinates":[-122.39319139999998,37.727097100000037]},"properties":{"OBJECTID":13,"Building_Address":"5545 3rd St","Latitude":37.727097100000002,"Longitude":-122.39319140000001,"Number_of_Voters":57,"Number_of_Phones":23,"Developer":"BRIDGE Housing","Match":"Bridge Housing","Match_1":"YES"}},{"type":"Feature","id":14,"geometry":{"type":"Point","coordinates":[-122.42559329999995,37.766147600000068]},"properties":{"OBJECTID":14,"Building_Address":"1855 15th St","Latitude":37.766147599999996,"Longitude":-122.4255933,"Number_of_Voters":56,"Number_of_Phones":22,"Developer":"BRIDGE Housing","Match":"Bridge Housing","Match_1":"YES"}},{"type":"Feature","id":15,"geometry":{"type":"Point","coordinates":[-122.41442649999999,37.805371300000047]},"properties":{"OBJECTID":15,"Building_Address":"455 Bay St","Latitude":37.805371299999997,"Longitude":-122.4144265,"Number_of_Voters":55,"Number_of_Phones":30,"Developer":"BRIDGE Housing","Match":"Bridge Housing","Match_1":"YES"}},{"type":"Feature","id":16,"geometry":{"type":"Point","coordinates":[-122.43101989999997,37.768942400000071]},"properties":{"OBJECTID":16,"Building_Address":"25 Sanchez St","Latitude":37.7689424,"Longitude":-122.4310199,"Number_of_Voters":54,"Number_of_Phones":18,"Developer":"BRIDGE Housing","Match":"Bridge Housing","Match_1":"YES"}},{"type":"Feature","id":17,"geometry":{"type":"Point","coordinates":[-122.39895319999999,37.799362200000076]},"properties":{"OBJECTID":17,"Building_Address":"735 Davis St","Latitude":37.799362199999997,"Longitude":-122.39895319999999,"Number_of_Voters":34,"Number_of_Phones":22,"Developer":"BRIDGE Housing","Match":"Bridge Housing","Match_1":"YES"}},{"type":"Feature","id":18,"geometry":{"type":"Point","coordinates":[-122.43078799999995,37.769506700000079]},"properties":{"OBJECTID":18,"Building_Address":"462 Duboce Ave","Latitude":37.769506700000001,"Longitude":-122.43078800000001,"Number_of_Voters":32,"Number_of_Phones":17,"Developer":"BRIDGE Housing","Match":"Bridge Housing","Match_1":"YES"}},{"type":"Feature","id":19,"geometry":{"type":"Point","coordinates":[-122.39968959999999,37.771698800000024]},"properties":{"OBJECTID":19,"Building_Address":"420 Berry St","Latitude":37.771698800000003,"Longitude":-122.3996896,"Number_of_Voters":246,"Number_of_Phones":134,"Developer":"Chinatown Community Development Center","Match":"Chinatown Community Development Center","Match_1":"YES"}},{"type":"Feature","id":20,"geometry":{"type":"Point","coordinates":[-122.41275429999996,37.782754500000067]},"properties":{"OBJECTID":20,"Building_Address":"201 Turk St","Latitude":37.782754500000003,"Longitude":-122.4127543,"Number_of_Voters":179,"Number_of_Phones":100,"Developer":"Chinatown Community Development Center","Match":"Chinatown Community Development Center","Match_1":"YES"}},{"type":"Feature","id":21,"geometry":{"type":"Point","coordinates":[-122.40909679999999,37.796918500000061]},"properties":{"OBJECTID":21,"Building_Address":"838 Pacific Ave","Latitude":37.796918499999997,"Longitude":-122.4090968,"Number_of_Voters":90,"Number_of_Phones":40,"Developer":"Chinatown Community Development Center","Match":"Chinatown Community Development Center","Match_1":"YES"}},{"type":"Feature","id":22,"geometry":{"type":"Point","coordinates":[-122.39013429999994,37.773096400000043]},"properties":{"OBJECTID":22,"Building_Address":"1150 3rd St","Latitude":37.7730964,"Longitude":-122.3901343,"Number_of_Voters":88,"Number_of_Phones":40,"Developer":"Chinatown Community Development Center","Match":"Chinatown Community Development Center","Match_1":"YES"}},{"type":"Feature","id":23,"geometry":{"type":"Point","coordinates":[-122.42358729999995,37.781427500000063]},"properties":{"OBJECTID":23,"Building_Address":"871 Turk St","Latitude":37.781427499999999,"Longitude":-122.42358729999999,"Number_of_Voters":77,"Number_of_Phones":39,"Developer":"Chinatown Community Development Center","Match":"Chinatown Community Development Center","Match_1":"YES"}},{"type":"Feature","id":24,"geometry":{"type":"Point","coordinates":[-122.40494839999997,37.79609060000007]},"properties":{"OBJECTID":24,"Building_Address":"848 Kearny St","Latitude":37.796090599999999,"Longitude":-122.40494839999999,"Number_of_Voters":76,"Number_of_Phones":34,"Developer":"Chinatown Community Development Center","Match":"Chinatown Community Development Center","Match_1":"YES"}},{"type":"Feature","id":25,"geometry":{"type":"Point","coordinates":[-122.41549049999998,37.76429950000005]},"properties":{"OBJECTID":25,"Building_Address":"2060 Folsom St","Latitude":37.7642995,"Longitude":-122.4154905,"Number_of_Voters":74,"Number_of_Phones":31,"Developer":"Chinatown Community Development Center","Match":"Chinatown Community Development Center","Match_1":"YES"}},{"type":"Feature","id":26,"geometry":{"type":"Point","coordinates":[-122.41144189999994,37.796532400000046]},"properties":{"OBJECTID":26,"Building_Address":"990 Pacific Ave","Latitude":37.796532399999997,"Longitude":-122.4114419,"Number_of_Voters":58,"Number_of_Phones":26,"Developer":"Chinatown Community Development Center","Match":"Chinatown Community Development Center","Match_1":"YES"}},{"type":"Feature","id":27,"geometry":{"type":"Point","coordinates":[-122.41129599999999,37.805618000000038]},"properties":{"OBJECTID":27,"Building_Address":"227 Bay St","Latitude":37.805618000000003,"Longitude":-122.41129599999999,"Number_of_Voters":40,"Number_of_Phones":15,"Developer":"Chinatown Community Development Center","Match":"Chinatown Community Development Center","Match_1":"YES"}},{"type":"Feature","id":28,"geometry":{"type":"Point","coordinates":[-122.41388749999999,37.783578500000033]},"properties":{"OBJECTID":28,"Building_Address":"385 Eddy St","Latitude":37.783578499999997,"Longitude":-122.4138875,"Number_of_Voters":32,"Number_of_Phones":14,"Developer":"Chinatown Community Development Center","Match":"Chinatown Community Development Center","Match_1":"YES"}},{"type":"Feature","id":29,"geometry":{"type":"Point","coordinates":[-122.42949869999995,37.786771500000043]},"properties":{"OBJECTID":29,"Building_Address":"1776 Sutter St","Latitude":37.7867715,"Longitude":-122.4294987,"Number_of_Voters":29,"Number_of_Phones":20,"Developer":"Chinatown Community Development Center","Match":"Chinatown Community Development Center","Match_1":"YES"}},{"type":"Feature","id":30,"geometry":{"type":"Point","coordinates":[-122.40407079999994,37.794480100000044]},"properties":{"OBJECTID":30,"Building_Address":"657 Clay St","Latitude":37.794480100000001,"Longitude":-122.4040708,"Number_of_Voters":21,"Number_of_Phones":10,"Developer":"Chinatown Community Development Center","Match":"Chinatown Community Development Center","Match_1":"YES"}},{"type":"Feature","id":31,"geometry":{"type":"Point","coordinates":[-122.41283999999996,37.786580000000072]},"properties":{"OBJECTID":31,"Building_Address":"585 Geary St","Latitude":37.786580000000001,"Longitude":-122.41284,"Number_of_Voters":20,"Number_of_Phones":7,"Developer":"Chinatown Community Development Center","Match":"Chinatown Community Development Center","Match_1":"YES"}},{"type":"Feature","id":32,"geometry":{"type":"Point","coordinates":[-122.41126569999994,37.794763100000068]},"properties":{"OBJECTID":32,"Building_Address":"1204 Mason St","Latitude":37.794763099999997,"Longitude":-122.4112657,"Number_of_Voters":18,"Number_of_Phones":8,"Developer":"Chinatown Community Development Center","Match":"Chinatown Community Development Center","Match_1":"YES"}},{"type":"Feature","id":33,"geometry":{"type":"Point","coordinates":[-122.41699689999996,37.791307300000028]},"properties":{"OBJECTID":33,"Building_Address":"1370 California St","Latitude":37.7913073,"Longitude":-122.4169969,"Number_of_Voters":17,"Number_of_Phones":10,"Developer":"Chinatown Community Development Center","Match":"Chinatown Community Development Center","Match_1":"YES"}},{"type":"Feature","id":34,"geometry":{"type":"Point","coordinates":[-122.40417969999999,37.794458600000041]},"properties":{"OBJECTID":34,"Building_Address":"665 Clay St","Latitude":37.794458599999999,"Longitude":-122.4041797,"Number_of_Voters":16,"Number_of_Phones":4,"Developer":"Chinatown Community Development Center","Match":"Chinatown Community Development Center","Match_1":"YES"}},{"type":"Feature","id":35,"geometry":{"type":"Point","coordinates":[-122.43203739999996,37.785638900000038]},"properties":{"OBJECTID":35,"Building_Address":"1820 Post St","Latitude":37.785638900000002,"Longitude":-122.4320374,"Number_of_Voters":10,"Number_of_Phones":5,"Developer":"Chinatown Community Development Center","Match":"Chinatown Community Development Center","Match_1":"YES"}},{"type":"Feature","id":36,"geometry":{"type":"Point","coordinates":[-122.42039489999996,37.794027300000039]},"properties":{"OBJECTID":36,"Building_Address":"1535 Jackson St","Latitude":37.794027300000003,"Longitude":-122.42039490000001,"Number_of_Voters":6,"Number_of_Phones":3,"Developer":"Chinatown Community Development Center","Match":"Chinatown Community Development Center","Match_1":"YES"}},{"type":"Feature","id":37,"geometry":{"type":"Point","coordinates":[-122.46790109999995,37.78312180000006]},"properties":{"OBJECTID":37,"Building_Address":"289 9th Ave","Latitude":37.783121800000004,"Longitude":-122.46790110000001,"Number_of_Voters":2,"Number_of_Phones":1,"Developer":"Chinatown Community Development Center","Match":"Chinatown Community Development Center","Match_1":"YES"}},{"type":"Feature","id":38,"geometry":{"type":"Point","coordinates":[-122.41270299999996,37.773458500000061]},"properties":{"OBJECTID":38,"Building_Address":"275 10th St","Latitude":37.773458499999997,"Longitude":-122.41270299999999,"Number_of_Voters":79,"Number_of_Phones":39,"Developer":"Episcopal Community Services","Match":"Episcopal Community Services","Match_1":"YES"}},{"type":"Feature","id":39,"geometry":{"type":"Point","coordinates":[-122.41190649999999,37.777053700000067]},"properties":{"OBJECTID":39,"Building_Address":"670 Natoma St","Latitude":37.777053700000003,"Longitude":-122.4119065,"Number_of_Voters":72,"Number_of_Phones":38,"Developer":"Glide Housing, Inc.","Match":"Glide Housing, Inc.","Match_1":"YES"}},{"type":"Feature","id":40,"geometry":{"type":"Point","coordinates":[-122.40978259999997,37.784779000000071]},"properties":{"OBJECTID":40,"Building_Address":"125 Mason St","Latitude":37.784779,"Longitude":-122.4097826,"Number_of_Voters":93,"Number_of_Phones":59,"Developer":"Glide Housing, Inc.","Match":"Glide Housing, Inc.","Match_1":"YES"}},{"type":"Feature","id":41,"geometry":{"type":"Point","coordinates":[-122.41147989999996,37.785426600000051]},"properties":{"OBJECTID":41,"Building_Address":"333 Taylor St","Latitude":37.785426600000001,"Longitude":-122.4114799,"Number_of_Voters":46,"Number_of_Phones":19,"Developer":"Glide Housing, Inc.","Match":"Glide Housing, Inc.","Match_1":"YES"}},{"type":"Feature","id":42,"geometry":{"type":"Point","coordinates":[-122.40969409999997,37.78502960000003]},"properties":{"OBJECTID":42,"Building_Address":"149 Mason St","Latitude":37.785029600000001,"Longitude":-122.4096941,"Number_of_Voters":25,"Number_of_Phones":12,"Developer":"Glide Housing, Inc.","Match":"Glide Housing, Inc.","Match_1":"YES"}},{"type":"Feature","id":43,"geometry":{"type":"Point","coordinates":[-122.39513529999999,37.786488900000052]},"properties":{"OBJECTID":43,"Building_Address":"25 Essex St","Latitude":37.786488900000002,"Longitude":-122.39513530000001,"Number_of_Voters":74,"Number_of_Phones":39,"Developer":"HomeRise","Match":"Homerise","Match_1":"YES"}},{"type":"Feature","id":44,"geometry":{"type":"Point","coordinates":[-122.417239,37.784588000000042]},"properties":{"OBJECTID":44,"Building_Address":"666 Ellis St","Latitude":37.784587999999999,"Longitude":-122.417239,"Number_of_Voters":59,"Number_of_Phones":18,"Developer":"HomeRise","Match":"Homerise","Match_1":"YES"}},{"type":"Feature","id":45,"geometry":{"type":"Point","coordinates":[-122.42314489999995,37.778585900000053]},"properties":{"OBJECTID":45,"Building_Address":"365 Fulton St","Latitude":37.778585900000003,"Longitude":-122.4231449,"Number_of_Voters":56,"Number_of_Phones":26,"Developer":"HomeRise","Match":"Homerise","Match_1":"YES"}},{"type":"Feature","id":46,"geometry":{"type":"Point","coordinates":[-122.44087409999997,37.777757300000076]},"properties":{"OBJECTID":46,"Building_Address":"1750 McAllister St","Latitude":37.777757299999998,"Longitude":-122.4408741,"Number_of_Voters":56,"Number_of_Phones":29,"Developer":"HomeRise","Match":"Homerise","Match_1":"YES"}},{"type":"Feature","id":47,"geometry":{"type":"Point","coordinates":[-122.41491529999996,37.784392100000048]},"properties":{"OBJECTID":47,"Building_Address":"519 Ellis St","Latitude":37.784392099999998,"Longitude":-122.4149153,"Number_of_Voters":44,"Number_of_Phones":23,"Developer":"HomeRise","Match":"Homerise","Match_1":"YES"}},{"type":"Feature","id":48,"geometry":{"type":"Point","coordinates":[-122.41848859999999,37.783304600000065]},"properties":{"OBJECTID":48,"Building_Address":"650 Eddy St","Latitude":37.783304600000001,"Longitude":-122.4184886,"Number_of_Voters":43,"Number_of_Phones":24,"Developer":"HomeRise","Match":"Homerise","Match_1":"YES"}},{"type":"Feature","id":49,"geometry":{"type":"Point","coordinates":[-122.41759809999996,37.784168400000055]},"properties":{"OBJECTID":49,"Building_Address":"684 Ellis St","Latitude":37.784168399999999,"Longitude":-122.41759810000001,"Number_of_Voters":38,"Number_of_Phones":15,"Developer":"HomeRise","Match":"Homerise","Match_1":"YES"}},{"type":"Feature","id":50,"geometry":{"type":"Point","coordinates":[-122.41396589999999,37.784375800000078]},"properties":{"OBJECTID":50,"Building_Address":"473 Ellis St","Latitude":37.784375799999999,"Longitude":-122.41396589999999,"Number_of_Voters":32,"Number_of_Phones":14,"Developer":"HomeRise","Match":"Homerise","Match_1":"YES"}},{"type":"Feature","id":51,"geometry":{"type":"Point","coordinates":[-122.44001679999997,37.778324000000055]},"properties":{"OBJECTID":51,"Building_Address":"850 Broderick St","Latitude":37.778323999999998,"Longitude":-122.4400168,"Number_of_Voters":18,"Number_of_Phones":10,"Developer":"HomeRise","Match":"Homerise","Match_1":"YES"}},{"type":"Feature","id":52,"geometry":{"type":"Point","coordinates":[-122.39164999999997,37.773612000000071]},"properties":{"OBJECTID":52,"Building_Address":"1180 4th St","Latitude":37.773612,"Longitude":-122.39165,"Number_of_Voters":181,"Number_of_Phones":86,"Developer":"Mercy Housing CA","Match":"Mercy Housing CA","Match_1":"YES"}},{"type":"Feature","id":53,"geometry":{"type":"Point","coordinates":[-122.41585499999997,37.775597800000071]},"properties":{"OBJECTID":53,"Building_Address":"1390 Mission St","Latitude":37.7755978,"Longitude":-122.41585499999999,"Number_of_Voters":158,"Number_of_Phones":74,"Developer":"Mercy Housing CA","Match":"Mercy Housing CA","Match_1":"YES"}},{"type":"Feature","id":54,"geometry":{"type":"Point","coordinates":[-122.39352219999995,37.775085500000046]},"properties":{"OBJECTID":54,"Building_Address":"225 Berry St","Latitude":37.775085500000003,"Longitude":-122.39352220000001,"Number_of_Voters":103,"Number_of_Phones":49,"Developer":"Mercy Housing CA","Match":"Mercy Housing CA","Match_1":"YES"}},{"type":"Feature","id":55,"geometry":{"type":"Point","coordinates":[-122.44161479999997,37.773852600000055]},"properties":{"OBJECTID":55,"Building_Address":"333 Baker St","Latitude":37.773852599999998,"Longitude":-122.4416148,"Number_of_Voters":101,"Number_of_Phones":46,"Developer":"Mercy Housing CA","Match":"Mercy Housing CA","Match_1":"YES"}},{"type":"Feature","id":56,"geometry":{"type":"Point","coordinates":[-122.42412999999999,37.769008000000042]},"properties":{"OBJECTID":56,"Building_Address":"145 Guerrero St","Latitude":37.769007999999999,"Longitude":-122.42413000000001,"Number_of_Voters":101,"Number_of_Phones":35,"Developer":"Mercy Housing CA","Match":"Mercy Housing CA","Match_1":"YES"}},{"type":"Feature","id":57,"geometry":{"type":"Point","coordinates":[-122.42521239999996,37.775513800000056]},"properties":{"OBJECTID":57,"Building_Address":"455 Fell St","Latitude":37.775513799999999,"Longitude":-122.42521240000001,"Number_of_Voters":79,"Number_of_Phones":42,"Developer":"Mercy Housing CA","Match":"Mercy Housing CA","Match_1":"YES"}},{"type":"Feature","id":58,"geometry":{"type":"Point","coordinates":[-122.41362599999997,37.715508100000079]},"properties":{"OBJECTID":58,"Building_Address":"500 Raymond Ave","Latitude":37.715508100000001,"Longitude":-122.41362599999999,"Number_of_Voters":77,"Number_of_Phones":37,"Developer":"Mercy Housing CA","Match":"Mercy Housing CA","Match_1":"YES"}},{"type":"Feature","id":59,"geometry":{"type":"Point","coordinates":[-122.41542379999999,37.776436100000069]},"properties":{"OBJECTID":59,"Building_Address":"66 9th St","Latitude":37.776436099999998,"Longitude":-122.4154238,"Number_of_Voters":76,"Number_of_Phones":38,"Developer":"Mercy Housing CA","Match":"Mercy Housing CA","Match_1":"YES"}},{"type":"Feature","id":60,"geometry":{"type":"Point","coordinates":[-122.45357509999997,37.723731000000043]},"properties":{"OBJECTID":60,"Building_Address":"1100 Ocean Ave","Latitude":37.723731000000001,"Longitude":-122.45357509999999,"Number_of_Voters":70,"Number_of_Phones":44,"Developer":"Mercy Housing CA","Match":"Mercy Housing CA","Match_1":"YES"}},{"type":"Feature","id":61,"geometry":{"type":"Point","coordinates":[-122.42651159999997,37.788990700000056]},"properties":{"OBJECTID":61,"Building_Address":"1880 Pine St","Latitude":37.788990699999999,"Longitude":-122.4265116,"Number_of_Voters":66,"Number_of_Phones":41,"Developer":"Mercy Housing CA","Match":"Mercy Housing CA","Match_1":"YES"}},{"type":"Feature","id":62,"geometry":{"type":"Point","coordinates":[-122.41146399999997,37.784857700000032]},"properties":{"OBJECTID":62,"Building_Address":"301 Ellis St","Latitude":37.784857700000003,"Longitude":-122.411464,"Number_of_Voters":65,"Number_of_Phones":28,"Developer":"Mercy Housing CA","Match":"Mercy Housing CA","Match_1":"YES"}},{"type":"Feature","id":63,"geometry":{"type":"Point","coordinates":[-122.41270459999998,37.781878800000072]},"properties":{"OBJECTID":63,"Building_Address":"129 Golden Gate Ave","Latitude":37.781878800000001,"Longitude":-122.4127046,"Number_of_Voters":64,"Number_of_Phones":26,"Developer":"Mercy Housing CA","Match":"Mercy Housing CA","Match_1":"YES"}},{"type":"Feature","id":64,"geometry":{"type":"Point","coordinates":[-122.42590889999997,37.763824500000055]},"properties":{"OBJECTID":64,"Building_Address":"347 Dolores St","Latitude":37.763824499999998,"Longitude":-122.4259089,"Number_of_Voters":60,"Number_of_Phones":31,"Developer":"Mercy Housing CA","Match":"Mercy Housing CA","Match_1":"YES"}},{"type":"Feature","id":65,"geometry":{"type":"Point","coordinates":[-122.43319669999994,37.789668200000051]},"properties":{"OBJECTID":65,"Building_Address":"2451 Sacramento St","Latitude":37.789668200000001,"Longitude":-122.4331967,"Number_of_Voters":60,"Number_of_Phones":30,"Developer":"Mercy Housing CA","Match":"Mercy Housing CA","Match_1":"YES"}},{"type":"Feature","id":66,"geometry":{"type":"Point","coordinates":[-122.42550339999997,37.771671200000071]},"properties":{"OBJECTID":66,"Building_Address":"95 Laguna St","Latitude":37.7716712,"Longitude":-122.4255034,"Number_of_Voters":52,"Number_of_Phones":33,"Developer":"Mercy Housing CA","Match":"Mercy Housing CA","Match_1":"YES"}},{"type":"Feature","id":67,"geometry":{"type":"Point","coordinates":[-122.45948389999995,37.784221800000068]},"properties":{"OBJECTID":67,"Building_Address":"345 Arguello Blvd","Latitude":37.784221799999997,"Longitude":-122.4594839,"Number_of_Voters":51,"Number_of_Phones":16,"Developer":"Mercy Housing CA","Match":"Mercy Housing CA","Match_1":"YES"}},{"type":"Feature","id":68,"geometry":{"type":"Point","coordinates":[-122.39319879999999,37.788796400000024]},"properties":{"OBJECTID":68,"Building_Address":"280 Beale St","Latitude":37.788796400000003,"Longitude":-122.39319879999999,"Number_of_Voters":51,"Number_of_Phones":27,"Developer":"Mercy Housing CA","Match":"Mercy Housing CA","Match_1":"YES"}},{"type":"Feature","id":69,"geometry":{"type":"Point","coordinates":[-122.39793909999997,37.718892700000026]},"properties":{"OBJECTID":69,"Building_Address":"1075 Le Conte Ave","Latitude":37.718892699999998,"Longitude":-122.3979391,"Number_of_Voters":51,"Number_of_Phones":32,"Developer":"Mercy Housing CA","Match":"Mercy Housing CA","Match_1":"YES"}},{"type":"Feature","id":70,"geometry":{"type":"Point","coordinates":[-122.39267069999994,37.735631400000045]},"properties":{"OBJECTID":70,"Building_Address":"1711 Oakdale Ave","Latitude":37.735631400000003,"Longitude":-122.3926707,"Number_of_Voters":50,"Number_of_Phones":22,"Developer":"Mercy Housing CA","Match":"Mercy Housing CA","Match_1":"YES"}},{"type":"Feature","id":71,"geometry":{"type":"Point","coordinates":[-122.40801259999995,37.779367400000069]},"properties":{"OBJECTID":71,"Building_Address":"1028 Howard St","Latitude":37.779367399999998,"Longitude":-122.40801260000001,"Number_of_Voters":50,"Number_of_Phones":34,"Developer":"Mercy Housing CA","Match":"Mercy Housing CA","Match_1":"YES"}},{"type":"Feature","id":72,"geometry":{"type":"Point","coordinates":[-122.39412159999995,37.788687100000061]},"properties":{"OBJECTID":72,"Building_Address":"255 Fremont St","Latitude":37.788687099999997,"Longitude":-122.39412160000001,"Number_of_Voters":47,"Number_of_Phones":20,"Developer":"Mercy Housing CA","Match":"Mercy Housing CA","Match_1":"YES"}},{"type":"Feature","id":73,"geometry":{"type":"Point","coordinates":[-122.40717759999995,37.779410400000074]},"properties":{"OBJECTID":73,"Building_Address":"1009 Howard St","Latitude":37.779410400000003,"Longitude":-122.4071776,"Number_of_Voters":47,"Number_of_Phones":30,"Developer":"Mercy Housing CA","Match":"Mercy Housing CA","Match_1":"YES"}},{"type":"Feature","id":74,"geometry":{"type":"Point","coordinates":[-122.40942519999999,37.777657600000055]},"properties":{"OBJECTID":74,"Building_Address":"1101 Howard St","Latitude":37.777657599999998,"Longitude":-122.4094252,"Number_of_Voters":41,"Number_of_Phones":27,"Developer":"Mercy Housing CA","Match":"Mercy Housing CA","Match_1":"YES"}},{"type":"Feature","id":75,"geometry":{"type":"Point","coordinates":[-122.41287349999999,37.783494400000052]},"properties":{"OBJECTID":75,"Building_Address":"241 Jones St","Latitude":37.783494400000002,"Longitude":-122.4128735,"Number_of_Voters":39,"Number_of_Phones":12,"Developer":"Mercy Housing CA","Match":"Mercy Housing CA","Match_1":"YES"}},{"type":"Feature","id":76,"geometry":{"type":"Point","coordinates":[-122.40803639999996,37.780813300000034]},"properties":{"OBJECTID":76,"Building_Address":"125 6th St","Latitude":37.780813299999998,"Longitude":-122.4080364,"Number_of_Voters":38,"Number_of_Phones":12,"Developer":"Mercy Housing CA","Match":"Mercy Housing CA","Match_1":"YES"}},{"type":"Feature","id":77,"geometry":{"type":"Point","coordinates":[-122.42562249999997,37.771049300000072]},"properties":{"OBJECTID":77,"Building_Address":"55 Laguna St","Latitude":37.771049300000001,"Longitude":-122.4256225,"Number_of_Voters":36,"Number_of_Phones":21,"Developer":"Mercy Housing CA","Match":"Mercy Housing CA","Match_1":"YES"}},{"type":"Feature","id":78,"geometry":{"type":"Point","coordinates":[-122.42052089999999,37.788937800000042]},"properties":{"OBJECTID":78,"Building_Address":"1315 Polk St","Latitude":37.788937799999999,"Longitude":-122.4205209,"Number_of_Voters":31,"Number_of_Phones":13,"Developer":"Mercy Housing CA","Match":"Mercy Housing CA","Match_1":"YES"}},{"type":"Feature","id":79,"geometry":{"type":"Point","coordinates":[-122.43862879999995,37.788485500000036]},"properties":{"OBJECTID":79,"Building_Address":"2698 California St","Latitude":37.7884855,"Longitude":-122.4386288,"Number_of_Voters":27,"Number_of_Phones":19,"Developer":"Mercy Housing CA","Match":"Mercy Housing CA","Match_1":"YES"}},{"type":"Feature","id":80,"geometry":{"type":"Point","coordinates":[-122.41261239999994,37.783192900000074]},"properties":{"OBJECTID":80,"Building_Address":"205 Jones St","Latitude":37.783192900000003,"Longitude":-122.4126124,"Number_of_Voters":27,"Number_of_Phones":13,"Developer":"Mercy Housing CA","Match":"Mercy Housing CA","Match_1":"YES"}},{"type":"Feature","id":81,"geometry":{"type":"Point","coordinates":[-122.41207819999994,37.752415400000075]},"properties":{"OBJECTID":81,"Building_Address":"3001 24th St","Latitude":37.752415399999997,"Longitude":-122.4120782,"Number_of_Voters":22,"Number_of_Phones":8,"Developer":"Mercy Housing CA","Match":"Mercy Housing CA","Match_1":"YES"}},{"type":"Feature","id":82,"geometry":{"type":"Point","coordinates":[-122.41642059999998,37.781819300000052]},"properties":{"OBJECTID":82,"Building_Address":"350 Golden Gate Ave","Latitude":37.781819300000002,"Longitude":-122.4164206,"Number_of_Voters":19,"Number_of_Phones":10,"Developer":"Mercy Housing CA","Match":"Mercy Housing CA","Match_1":"YES"}},{"type":"Feature","id":83,"geometry":{"type":"Point","coordinates":[-122.43141679999997,37.778058300000055]},"properties":{"OBJECTID":83,"Building_Address":"926 Fillmore St","Latitude":37.778058299999998,"Longitude":-122.43141679999999,"Number_of_Voters":17,"Number_of_Phones":5,"Developer":"Mercy Housing CA","Match":"Mercy Housing CA","Match_1":"YES"}},{"type":"Feature","id":84,"geometry":{"type":"Point","coordinates":[-122.43742569999995,37.76006360000008]},"properties":{"OBJECTID":84,"Building_Address":"118 Diamond St","Latitude":37.760063600000002,"Longitude":-122.43742570000001,"Number_of_Voters":17,"Number_of_Phones":8,"Developer":"Mercy Housing CA","Match":"Mercy Housing CA","Match_1":"YES"}},{"type":"Feature","id":85,"geometry":{"type":"Point","coordinates":[-122.44590549999998,37.771266500000024]},"properties":{"OBJECTID":85,"Building_Address":"1099 Masonic Ave","Latitude":37.771266500000003,"Longitude":-122.44590549999999,"Number_of_Voters":12,"Number_of_Phones":6,"Developer":"Mercy Housing CA","Match":"Mercy Housing CA","Match_1":"YES"}},{"type":"Feature","id":86,"geometry":{"type":"Point","coordinates":[-122.44166279999996,37.774418200000071]},"properties":{"OBJECTID":86,"Building_Address":"1509 Hayes St","Latitude":37.7744182,"Longitude":-122.4416628,"Number_of_Voters":11,"Number_of_Phones":4,"Developer":"Mercy Housing CA","Match":"Mercy Housing CA","Match_1":"YES"}},{"type":"Feature","id":87,"geometry":{"type":"Point","coordinates":[-122.39482549999997,37.728900000000067]},"properties":{"OBJECTID":87,"Building_Address":"1790 Yosemite Ave","Latitude":37.728900000000003,"Longitude":-122.3948255,"Number_of_Voters":1,"Number_of_Phones":1,"Developer":"Mercy Housing CA","Match":"Mercy Housing CA","Match_1":"YES"}},{"type":"Feature","id":88,"geometry":{"type":"Point","coordinates":[-122.41524799999996,37.748644900000045]},"properties":{"OBJECTID":88,"Building_Address":"1296 Shotwell St","Latitude":37.748644900000002,"Longitude":-122.41524800000001,"Number_of_Voters":66,"Number_of_Phones":32,"Developer":"Mission Economic Development Agency","Match":"Mission Economic Development Agency","Match_1":"YES"}},{"type":"Feature","id":89,"geometry":{"type":"Point","coordinates":[-122.42967629999998,37.761550600000078]},"properties":{"OBJECTID":89,"Building_Address":"3850 18th St","Latitude":37.7615506,"Longitude":-122.4296763,"Number_of_Voters":55,"Number_of_Phones":21,"Developer":"Mission Economic Development Agency","Match":"Mission Economic Development Agency","Match_1":"YES"}},{"type":"Feature","id":90,"geometry":{"type":"Point","coordinates":[-122.43809799999997,37.720890700000041]},"properties":{"OBJECTID":90,"Building_Address":"4830 Mission St","Latitude":37.720890699999998,"Longitude":-122.438098,"Number_of_Voters":28,"Number_of_Phones":14,"Developer":"Mission Economic Development Agency","Match":"Mission Economic Development Agency","Match_1":"YES"}},{"type":"Feature","id":91,"geometry":{"type":"Point","coordinates":[-122.41967629999999,37.758408200000076]},"properties":{"OBJECTID":91,"Building_Address":"305 San Carlos St","Latitude":37.758408199999998,"Longitude":-122.41967630000001,"Number_of_Voters":13,"Number_of_Phones":6,"Developer":"Mission Economic Development Agency","Match":"Mission Economic Development Agency","Match_1":"YES"}},{"type":"Feature","id":92,"geometry":{"type":"Point","coordinates":[-122.41917609999996,37.763556900000026]},"properties":{"OBJECTID":92,"Building_Address":"3280 17th St","Latitude":37.763556899999998,"Longitude":-122.4191761,"Number_of_Voters":8,"Number_of_Phones":4,"Developer":"Mission Economic Development Agency","Match":"Mission Economic Development Agency","Match_1":"YES"}},{"type":"Feature","id":93,"geometry":{"type":"Point","coordinates":[-122.41482569999999,37.751926600000047]},"properties":{"OBJECTID":93,"Building_Address":"1015 Shotwell St","Latitude":37.751926599999997,"Longitude":-122.41482569999999,"Number_of_Voters":5,"Number_of_Phones":2,"Developer":"Mission Economic Development Agency","Match":"Mission Economic Development Agency","Match_1":"YES"}},{"type":"Feature","id":94,"geometry":{"type":"Point","coordinates":[-122.42241519999999,37.765922800000055]},"properties":{"OBJECTID":94,"Building_Address":"440 Valencia St","Latitude":37.765922799999998,"Longitude":-122.4224152,"Number_of_Voters":99,"Number_of_Phones":50,"Developer":"Mission Housing Development Corporation","Match":"Mission Housing Development Corporation","Match_1":"YES"}},{"type":"Feature","id":95,"geometry":{"type":"Point","coordinates":[-122.3917166,37.777194800000075]},"properties":{"OBJECTID":95,"Building_Address":"150 Berry St","Latitude":37.777194799999997,"Longitude":-122.3917166,"Number_of_Voters":74,"Number_of_Phones":38,"Developer":"Mission Housing Development Corporation","Match":"Mission Housing Development Corporation","Match_1":"YES"}},{"type":"Feature","id":96,"geometry":{"type":"Point","coordinates":[-122.42070899999999,37.76436700000005]},"properties":{"OBJECTID":96,"Building_Address":"36 Hoff St","Latitude":37.764367,"Longitude":-122.420709,"Number_of_Voters":62,"Number_of_Phones":32,"Developer":"Mission Housing Development Corporation","Match":"Mission Housing Development Corporation","Match_1":"YES"}},{"type":"Feature","id":97,"geometry":{"type":"Point","coordinates":[-122.41695069999997,37.756888100000026]},"properties":{"OBJECTID":97,"Building_Address":"3101 21st St","Latitude":37.756888099999998,"Longitude":-122.4169507,"Number_of_Voters":57,"Number_of_Phones":21,"Developer":"Mission Housing Development Corporation","Match":"Mission Housing Development Corporation","Match_1":"YES"}},{"type":"Feature","id":98,"geometry":{"type":"Point","coordinates":[-122.40784969999999,37.763007100000038]},"properties":{"OBJECTID":98,"Building_Address":"2445 Mariposa St","Latitude":37.763007100000003,"Longitude":-122.4078497,"Number_of_Voters":30,"Number_of_Phones":12,"Developer":"Mission Housing Development Corporation","Match":"Mission Housing Development Corporation","Match_1":"YES"}},{"type":"Feature","id":99,"geometry":{"type":"Point","coordinates":[-122.42066069999998,37.765185600000052]},"properties":{"OBJECTID":99,"Building_Address":"3048 16th St","Latitude":37.765185600000002,"Longitude":-122.4206607,"Number_of_Voters":29,"Number_of_Phones":10,"Developer":"Mission Housing Development Corporation","Match":"Mission Housing Development Corporation","Match_1":"YES"}},{"type":"Feature","id":100,"geometry":{"type":"Point","coordinates":[-122.41685459999997,37.750020100000029]},"properties":{"OBJECTID":100,"Building_Address":"1045 Capp St","Latitude":37.7500201,"Longitude":-122.41685459999999,"Number_of_Voters":22,"Number_of_Phones":5,"Developer":"Mission Housing Development Corporation","Match":"Mission Housing Development Corporation","Match_1":"YES"}},{"type":"Feature","id":101,"geometry":{"type":"Point","coordinates":[-122.42036059999998,37.766539900000055]},"properties":{"OBJECTID":101,"Building_Address":"1637 15th St","Latitude":37.766539899999998,"Longitude":-122.4203606,"Number_of_Voters":11,"Number_of_Phones":6,"Developer":"Mission Housing Development Corporation","Match":"Mission Housing Development Corporation","Match_1":"YES"}},{"type":"Feature","id":102,"geometry":{"type":"Point","coordinates":[-122.40942859999996,37.758306600000026]},"properties":{"OBJECTID":102,"Building_Address":"2261 Bryant St","Latitude":37.758306599999997,"Longitude":-122.4094286,"Number_of_Voters":5,"Number_of_Phones":1,"Developer":"Mission Housing Development Corporation","Match":"Mission Housing Development Corporation","Match_1":"YES"}},{"type":"Feature","id":103,"geometry":{"type":"Point","coordinates":[-122.40422739999997,37.795976900000028]},"properties":{"OBJECTID":103,"Building_Address":"53 Columbus Ave","Latitude":37.795976899999999,"Longitude":-122.4042274,"Number_of_Voters":28,"Number_of_Phones":14,"Developer":"San Francisco Community Land Trust","Match":"San Francisco Community Land Trust","Match_1":"YES"}},{"type":"Feature","id":104,"geometry":{"type":"Point","coordinates":[-122.41173499999996,37.754427700000065]},"properties":{"OBJECTID":104,"Building_Address":"2976 23rd St","Latitude":37.754427700000001,"Longitude":-122.41173499999999,"Number_of_Voters":9,"Number_of_Phones":5,"Developer":"San Francisco Community Land Trust","Match":"San Francisco Community Land Trust","Match_1":"YES"}},{"type":"Feature","id":105,"geometry":{"type":"Point","coordinates":[-122.45353449999999,37.801933600000041]},"properties":{"OBJECTID":105,"Building_Address":"1030 Girard Rd","Latitude":37.801933599999998,"Longitude":-122.4535345,"Number_of_Voters":39,"Number_of_Phones":24,"Developer":"Swords to Plowshares","Match":"Swords to Plowshares","Match_1":"YES"}},{"type":"Feature","id":106,"geometry":{"type":"Point","coordinates":[-122.42043069999994,37.771571800000061]},"properties":{"OBJECTID":106,"Building_Address":"150 Otis St","Latitude":37.771571799999997,"Longitude":-122.4204307,"Number_of_Voters":32,"Number_of_Phones":17,"Developer":"Swords to Plowshares","Match":"Swords to Plowshares","Match_1":"YES"}},{"type":"Feature","id":107,"geometry":{"type":"Point","coordinates":[-122.42948119999994,37.780615800000078]},"properties":{"OBJECTID":107,"Building_Address":"1251 Turk St","Latitude":37.7806158,"Longitude":-122.4294812,"Number_of_Voters":185,"Number_of_Phones":107,"Developer":"Tenderloin Neighborhood Development Corporation (TNDC)","Match":"Tenderloin Neighborhood Development Corporation (TNDC)","Match_1":"YES"}},{"type":"Feature","id":108,"geometry":{"type":"Point","coordinates":[-122.41145969999997,37.784213000000079]},"properties":{"OBJECTID":108,"Building_Address":"230 Eddy St","Latitude":37.784213000000001,"Longitude":-122.41145969999999,"Number_of_Voters":112,"Number_of_Phones":46,"Developer":"Tenderloin Neighborhood Development Corporation (TNDC)","Match":"Tenderloin Neighborhood Development Corporation (TNDC)","Match_1":"YES"}},{"type":"Feature","id":109,"geometry":{"type":"Point","coordinates":[-122.41279149999997,37.781248500000061]},"properties":{"OBJECTID":109,"Building_Address":"44 McAllister St","Latitude":37.781248499999997,"Longitude":-122.4127915,"Number_of_Voters":84,"Number_of_Phones":44,"Developer":"Tenderloin Neighborhood Development Corporation (TNDC)","Match":"Tenderloin Neighborhood Development Corporation (TNDC)","Match_1":"YES"}},{"type":"Feature","id":110,"geometry":{"type":"Point","coordinates":[-122.41089799999997,37.784424000000058]},"properties":{"OBJECTID":110,"Building_Address":"222 Taylor St","Latitude":37.784424000000001,"Longitude":-122.410898,"Number_of_Voters":82,"Number_of_Phones":46,"Developer":"Tenderloin Neighborhood Development Corporation (TNDC)","Match":"Tenderloin Neighborhood Development Corporation (TNDC)","Match_1":"YES"}},{"type":"Feature","id":111,"geometry":{"type":"Point","coordinates":[-122.41112439999995,37.783726900000033]},"properties":{"OBJECTID":111,"Building_Address":"145 Taylor St","Latitude":37.783726899999998,"Longitude":-122.41112440000001,"Number_of_Voters":82,"Number_of_Phones":43,"Developer":"Tenderloin Neighborhood Development Corporation (TNDC)","Match":"Tenderloin Neighborhood Development Corporation (TNDC)","Match_1":"YES"}},{"type":"Feature","id":112,"geometry":{"type":"Point","coordinates":[-122.40985969999997,37.783449700000062]},"properties":{"OBJECTID":112,"Building_Address":"34 Turk St","Latitude":37.783449699999998,"Longitude":-122.4098597,"Number_of_Voters":81,"Number_of_Phones":41,"Developer":"Tenderloin Neighborhood Development Corporation (TNDC)","Match":"Tenderloin Neighborhood Development Corporation (TNDC)","Match_1":"YES"}},{"type":"Feature","id":113,"geometry":{"type":"Point","coordinates":[-122.41116709999994,37.760824200000059]},"properties":{"OBJECTID":113,"Building_Address":"680 Florida St","Latitude":37.760824200000002,"Longitude":-122.4111671,"Number_of_Voters":79,"Number_of_Phones":37,"Developer":"Tenderloin Neighborhood Development Corporation (TNDC)","Match":"Tenderloin Neighborhood Development Corporation (TNDC)","Match_1":"YES"}},{"type":"Feature","id":114,"geometry":{"type":"Point","coordinates":[-122.40910319999995,37.78552030000003]},"properties":{"OBJECTID":114,"Building_Address":"174 Ellis St","Latitude":37.785520300000002,"Longitude":-122.4091032,"Number_of_Voters":77,"Number_of_Phones":32,"Developer":"Tenderloin Neighborhood Development Corporation (TNDC)","Match":"Tenderloin Neighborhood Development Corporation (TNDC)","Match_1":"YES"}},{"type":"Feature","id":115,"geometry":{"type":"Point","coordinates":[-122.42962359999996,37.780640600000027]},"properties":{"OBJECTID":115,"Building_Address":"1239 Turk St","Latitude":37.780640599999998,"Longitude":-122.4296236,"Number_of_Voters":75,"Number_of_Phones":27,"Developer":"Tenderloin Neighborhood Development Corporation (TNDC)","Match":"Tenderloin Neighborhood Development Corporation (TNDC)","Match_1":"YES"}},{"type":"Feature","id":116,"geometry":{"type":"Point","coordinates":[-122.41960449999999,37.785789200000067]},"properties":{"OBJECTID":116,"Building_Address":"990 Polk St","Latitude":37.785789200000004,"Longitude":-122.41960450000001,"Number_of_Voters":74,"Number_of_Phones":31,"Developer":"Tenderloin Neighborhood Development Corporation (TNDC)","Match":"Tenderloin Neighborhood Development Corporation (TNDC)","Match_1":"YES"}},{"type":"Feature","id":117,"geometry":{"type":"Point","coordinates":[-122.41153159999999,37.776553400000068]},"properties":{"OBJECTID":117,"Building_Address":"1190 Howard St","Latitude":37.776553399999997,"Longitude":-122.4115316,"Number_of_Voters":69,"Number_of_Phones":38,"Developer":"Tenderloin Neighborhood Development Corporation (TNDC)","Match":"Tenderloin Neighborhood Development Corporation (TNDC)","Match_1":"YES"}},{"type":"Feature","id":118,"geometry":{"type":"Point","coordinates":[-122.41210449999994,37.785190900000032]},"properties":{"OBJECTID":118,"Building_Address":"350 Ellis St","Latitude":37.785190900000003,"Longitude":-122.4121045,"Number_of_Voters":65,"Number_of_Phones":33,"Developer":"Tenderloin Neighborhood Development Corporation (TNDC)","Match":"Tenderloin Neighborhood Development Corporation (TNDC)","Match_1":"YES"}},{"type":"Feature","id":119,"geometry":{"type":"Point","coordinates":[-122.41654449999999,37.782317500000033]},"properties":{"OBJECTID":119,"Building_Address":"430 Turk St","Latitude":37.782317499999998,"Longitude":-122.4165445,"Number_of_Voters":58,"Number_of_Phones":24,"Developer":"Tenderloin Neighborhood Development Corporation (TNDC)","Match":"Tenderloin Neighborhood Development Corporation (TNDC)","Match_1":"YES"}},{"type":"Feature","id":120,"geometry":{"type":"Point","coordinates":[-122.41362769999995,37.783116300000074]},"properties":{"OBJECTID":120,"Building_Address":"270 Turk St","Latitude":37.783116300000003,"Longitude":-122.41362770000001,"Number_of_Voters":58,"Number_of_Phones":40,"Developer":"Tenderloin Neighborhood Development Corporation (TNDC)","Match":"Tenderloin Neighborhood Development Corporation (TNDC)","Match_1":"YES"}},{"type":"Feature","id":121,"geometry":{"type":"Point","coordinates":[-122.41226049999995,37.78319840000006]},"properties":{"OBJECTID":121,"Building_Address":"180 Turk St","Latitude":37.783198400000003,"Longitude":-122.4122605,"Number_of_Voters":58,"Number_of_Phones":23,"Developer":"Tenderloin Neighborhood Development Corporation (TNDC)","Match":"Tenderloin Neighborhood Development Corporation (TNDC)","Match_1":"YES"}},{"type":"Feature","id":122,"geometry":{"type":"Point","coordinates":[-122.41428559999997,37.781998800000054]},"properties":{"OBJECTID":122,"Building_Address":"220 Golden Gate Ave","Latitude":37.781998799999997,"Longitude":-122.4142856,"Number_of_Voters":54,"Number_of_Phones":33,"Developer":"Tenderloin Neighborhood Development Corporation (TNDC)","Match":"Tenderloin Neighborhood Development Corporation (TNDC)","Match_1":"YES"}},{"type":"Feature","id":123,"geometry":{"type":"Point","coordinates":[-122.41131529999996,37.783980000000042]},"properties":{"OBJECTID":123,"Building_Address":"217 Eddy St","Latitude":37.78398,"Longitude":-122.4113153,"Number_of_Voters":52,"Number_of_Phones":31,"Developer":"Tenderloin Neighborhood Development Corporation (TNDC)","Match":"Tenderloin Neighborhood Development Corporation (TNDC)","Match_1":"YES"}},{"type":"Feature","id":124,"geometry":{"type":"Point","coordinates":[-122.40947409999995,37.784170700000061]},"properties":{"OBJECTID":124,"Building_Address":"55 Mason St","Latitude":37.784170699999997,"Longitude":-122.4094741,"Number_of_Voters":50,"Number_of_Phones":26,"Developer":"Tenderloin Neighborhood Development Corporation (TNDC)","Match":"Tenderloin Neighborhood Development Corporation (TNDC)","Match_1":"YES"}},{"type":"Feature","id":125,"geometry":{"type":"Point","coordinates":[-122.40967199999994,37.780476600000043]},"properties":{"OBJECTID":125,"Building_Address":"1036 Mission St","Latitude":37.7804766,"Longitude":-122.409672,"Number_of_Voters":49,"Number_of_Phones":29,"Developer":"Tenderloin Neighborhood Development Corporation (TNDC)","Match":"Tenderloin Neighborhood Development Corporation (TNDC)","Match_1":"YES"}},{"type":"Feature","id":126,"geometry":{"type":"Point","coordinates":[-122.41758649999997,37.782679100000053]},"properties":{"OBJECTID":126,"Building_Address":"555 Larkin St","Latitude":37.782679100000003,"Longitude":-122.4175865,"Number_of_Voters":41,"Number_of_Phones":21,"Developer":"Tenderloin Neighborhood Development Corporation (TNDC)","Match":"Tenderloin Neighborhood Development Corporation (TNDC)","Match_1":"YES"}},{"type":"Feature","id":127,"geometry":{"type":"Point","coordinates":[-122.41135339999994,37.784203400000024]},"properties":{"OBJECTID":127,"Building_Address":"216 Eddy St","Latitude":37.784203400000003,"Longitude":-122.4113534,"Number_of_Voters":39,"Number_of_Phones":22,"Developer":"Tenderloin Neighborhood Development Corporation (TNDC)","Match":"Tenderloin Neighborhood Development Corporation (TNDC)","Match_1":"YES"}},{"type":"Feature","id":128,"geometry":{"type":"Point","coordinates":[-122.40997429999999,37.784057700000062]},"properties":{"OBJECTID":128,"Building_Address":"141 Eddy St","Latitude":37.784057699999998,"Longitude":-122.4099743,"Number_of_Voters":36,"Number_of_Phones":19,"Developer":"Tenderloin Neighborhood Development Corporation (TNDC)","Match":"Tenderloin Neighborhood Development Corporation (TNDC)","Match_1":"YES"}},{"type":"Feature","id":129,"geometry":{"type":"Point","coordinates":[-122.44281789999997,37.770801100000028]},"properties":{"OBJECTID":129,"Building_Address":"1250 Haight St","Latitude":37.7708011,"Longitude":-122.44281789999999,"Number_of_Voters":33,"Number_of_Phones":18,"Developer":"Tenderloin Neighborhood Development Corporation (TNDC)","Match":"Tenderloin Neighborhood Development Corporation (TNDC)","Match_1":"YES"}},{"type":"Feature","id":130,"geometry":{"type":"Point","coordinates":[-122.41381179999996,37.784890500000074]},"properties":{"OBJECTID":130,"Building_Address":"460 Ellis St","Latitude":37.784890500000003,"Longitude":-122.4138118,"Number_of_Voters":31,"Number_of_Phones":20,"Developer":"Tenderloin Neighborhood Development Corporation (TNDC)","Match":"Tenderloin Neighborhood Development Corporation (TNDC)","Match_1":"YES"}},{"type":"Feature","id":131,"geometry":{"type":"Point","coordinates":[-122.42314489999995,37.782382400000074]},"properties":{"OBJECTID":131,"Building_Address":"939 Eddy St","Latitude":37.782382400000003,"Longitude":-122.4231449,"Number_of_Voters":26,"Number_of_Phones":10,"Developer":"Tenderloin Neighborhood Development Corporation (TNDC)","Match":"Tenderloin Neighborhood Development Corporation (TNDC)","Match_1":"YES"}},{"type":"Feature","id":132,"geometry":{"type":"Point","coordinates":[-122.41178129999997,37.782991500000037]},"properties":{"OBJECTID":132,"Building_Address":"165 Turk St","Latitude":37.782991500000001,"Longitude":-122.4117813,"Number_of_Voters":24,"Number_of_Phones":9,"Developer":"Tenderloin Neighborhood Development Corporation (TNDC)","Match":"Tenderloin Neighborhood Development Corporation (TNDC)","Match_1":"YES"}},{"type":"Feature","id":133,"geometry":{"type":"Point","coordinates":[-122.41548699999998,37.78329430000008]},"properties":{"OBJECTID":133,"Building_Address":"481 Eddy St","Latitude":37.783294300000001,"Longitude":-122.415487,"Number_of_Voters":23,"Number_of_Phones":18,"Developer":"Tenderloin Neighborhood Development Corporation (TNDC)","Match":"Tenderloin Neighborhood Development Corporation (TNDC)","Match_1":"YES"}},{"type":"Feature","id":134,"geometry":{"type":"Point","coordinates":[-122.41183779999994,37.760981500000071]},"properties":{"OBJECTID":134,"Building_Address":"655 Alabama St","Latitude":37.7609815,"Longitude":-122.4118378,"Number_of_Voters":16,"Number_of_Phones":8,"Developer":"Tenderloin Neighborhood Development Corporation (TNDC)","Match":"Tenderloin Neighborhood Development Corporation (TNDC)","Match_1":"YES"}},{"type":"Feature","id":135,"geometry":{"type":"Point","coordinates":[-122.42046199999999,37.784128000000067]},"properties":{"OBJECTID":135,"Building_Address":"864 Ellis St","Latitude":37.784128000000003,"Longitude":-122.420462,"Number_of_Voters":14,"Number_of_Phones":3,"Developer":"Tenderloin Neighborhood Development Corporation (TNDC)","Match":"Tenderloin Neighborhood Development Corporation (TNDC)","Match_1":"YES"}},{"type":"Feature","id":136,"geometry":{"type":"Point","coordinates":[-122.42866949999996,37.772513100000026]},"properties":{"OBJECTID":136,"Building_Address":"398 Haight St","Latitude":37.772513099999998,"Longitude":-122.4286695,"Number_of_Voters":12,"Number_of_Phones":7,"Developer":"Tenderloin Neighborhood Development Corporation (TNDC)","Match":"Tenderloin Neighborhood Development Corporation (TNDC)","Match_1":"YES"}},{"type":"Feature","id":137,"geometry":{"type":"Point","coordinates":[-122.41454399999998,37.784527700000069]},"properties":{"OBJECTID":137,"Building_Address":"391 Leavenworth St","Latitude":37.784527699999998,"Longitude":-122.41454400000001,"Number_of_Voters":10,"Number_of_Phones":5,"Developer":"Tenderloin Neighborhood Development Corporation (TNDC)","Match":"Tenderloin Neighborhood Development Corporation (TNDC)","Match_1":"YES"}},{"type":"Feature","id":138,"geometry":{"type":"Point","coordinates":[-122.39974939999996,37.782892500000059]},"properties":{"OBJECTID":138,"Building_Address":"737 Folsom St","Latitude":37.782892500000003,"Longitude":-122.3997494,"Number_of_Voters":144,"Number_of_Phones":71,"Developer":"TODCO","Match":"TODCO","Match_1":"YES"}},{"type":"Feature","id":139,"geometry":{"type":"Point","coordinates":[-122.40926049999996,37.780936100000076]},"properties":{"OBJECTID":139,"Building_Address":"88 6th St","Latitude":37.780936099999998,"Longitude":-122.4092605,"Number_of_Voters":93,"Number_of_Phones":43,"Developer":"TODCO","Match":"TODCO","Match_1":"YES"}},{"type":"Feature","id":140,"geometry":{"type":"Point","coordinates":[-122.40221699999995,37.781935200000078]},"properties":{"OBJECTID":140,"Building_Address":"321 Clementina St","Latitude":37.781935199999999,"Longitude":-122.40221699999999,"Number_of_Voters":80,"Number_of_Phones":35,"Developer":"TODCO","Match":"TODCO","Match_1":"YES"}},{"type":"Feature","id":141,"geometry":{"type":"Point","coordinates":[-122.40638119999994,37.779383900000028]},"properties":{"OBJECTID":141,"Building_Address":"241 6th St","Latitude":37.779383899999999,"Longitude":-122.4063812,"Number_of_Voters":77,"Number_of_Phones":45,"Developer":"TODCO","Match":"TODCO","Match_1":"YES"}},{"type":"Feature","id":142,"geometry":{"type":"Point","coordinates":[-122.40332719999998,37.782558300000062]},"properties":{"OBJECTID":142,"Building_Address":"328 Tehama St","Latitude":37.782558299999998,"Longitude":-122.40332720000001,"Number_of_Voters":71,"Number_of_Phones":36,"Developer":"TODCO","Match":"TODCO","Match_1":"YES"}},{"type":"Feature","id":143,"geometry":{"type":"Point","coordinates":[-122.40686219999998,37.780242200000032]},"properties":{"OBJECTID":143,"Building_Address":"980 Howard St","Latitude":37.780242200000004,"Longitude":-122.40686220000001,"Number_of_Voters":29,"Number_of_Phones":16,"Developer":"TODCO","Match":"TODCO","Match_1":"YES"}},{"type":"Feature","id":144,"geometry":{"type":"Point","coordinates":[-122.40902229999995,37.776234800000054]},"properties":{"OBJECTID":144,"Building_Address":"99 Rausch St","Latitude":37.776234799999997,"Longitude":-122.4090223,"Number_of_Voters":98,"Number_of_Phones":57,"Developer":"1140 Folsom, LLC","Match":null,"Match_1":null}},{"type":"Feature","id":145,"geometry":{"type":"Point","coordinates":[-122.38839969999998,37.755938600000036]},"properties":{"OBJECTID":145,"Building_Address":"2660 3rd St","Latitude":37.7559386,"Longitude":-122.38839969999999,"Number_of_Voters":90,"Number_of_Phones":49,"Developer":"AGI Capital","Match":null,"Match_1":null}},{"type":"Feature","id":146,"geometry":{"type":"Point","coordinates":[-122.42681489999995,37.771840800000064]},"properties":{"OBJECTID":146,"Building_Address":"200 Buchanan St","Latitude":37.7718408,"Longitude":-122.4268149,"Number_of_Voters":57,"Number_of_Phones":23,"Developer":"Alta Laguna, LLC","Match":null,"Match_1":null}},{"type":"Feature","id":147,"geometry":{"type":"Point","coordinates":[-122.37057089999996,37.727924400000063]},"properties":{"OBJECTID":147,"Building_Address":"350 Friedell St","Latitude":37.727924399999999,"Longitude":-122.3705709,"Number_of_Voters":54,"Number_of_Phones":37,"Developer":"Amcal Pacific Point Fund, LP","Match":null,"Match_1":null}},{"type":"Feature","id":148,"geometry":{"type":"Point","coordinates":[-122.41549189999995,37.784278700000073]},"properties":{"OBJECTID":148,"Building_Address":"555 Ellis St","Latitude":37.784278700000002,"Longitude":-122.41549190000001,"Number_of_Voters":62,"Number_of_Phones":31,"Developer":"Asian Neighborhood Design","Match":null,"Match_1":null}},{"type":"Feature","id":149,"geometry":{"type":"Point","coordinates":[-122.41348309999995,37.784529600000042]},"properties":{"OBJECTID":149,"Building_Address":"441 Ellis St","Latitude":37.784529599999999,"Longitude":-122.41348309999999,"Number_of_Voters":65,"Number_of_Phones":28,"Developer":"ASIAN, Inc.","Match":null,"Match_1":null}},{"type":"Feature","id":150,"geometry":{"type":"Point","coordinates":[-122.40713729999999,37.780451600000049]},"properties":{"OBJECTID":150,"Building_Address":"479 Natoma St","Latitude":37.780451599999999,"Longitude":-122.4071373,"Number_of_Voters":51,"Number_of_Phones":32,"Developer":"ASIAN, Inc.","Match":null,"Match_1":null}},{"type":"Feature","id":151,"geometry":{"type":"Point","coordinates":[-122.41700289999994,37.783242800000039]},"properties":{"OBJECTID":151,"Building_Address":"575 Eddy St","Latitude":37.783242799999996,"Longitude":-122.4170029,"Number_of_Voters":42,"Number_of_Phones":21,"Developer":"ASIAN, Inc.","Match":null,"Match_1":null}},{"type":"Feature","id":152,"geometry":{"type":"Point","coordinates":[-122.41624269999994,37.782271800000046]},"properties":{"OBJECTID":152,"Building_Address":"421 Turk St","Latitude":37.782271799999997,"Longitude":-122.4162427,"Number_of_Voters":40,"Number_of_Phones":19,"Developer":"ASIAN, Inc.","Match":null,"Match_1":null}},{"type":"Feature","id":153,"geometry":{"type":"Point","coordinates":[-122.40860789999999,37.780367100000035]},"properties":{"OBJECTID":153,"Building_Address":"518 Minna St","Latitude":37.780367099999999,"Longitude":-122.40860790000001,"Number_of_Voters":34,"Number_of_Phones":24,"Developer":"ASIAN, Inc.","Match":null,"Match_1":null}},{"type":"Feature","id":154,"geometry":{"type":"Point","coordinates":[-122.42341029999994,37.796963700000049]},"properties":{"OBJECTID":154,"Building_Address":"2300 Van Ness Ave","Latitude":37.796963699999999,"Longitude":-122.4234103,"Number_of_Voters":30,"Number_of_Phones":13,"Developer":"ASIAN, Inc.","Match":null,"Match_1":null}},{"type":"Feature","id":155,"geometry":{"type":"Point","coordinates":[-122.41374279999997,37.78503180000007]},"properties":{"OBJECTID":155,"Building_Address":"450 Ellis St","Latitude":37.785031799999999,"Longitude":-122.41374279999999,"Number_of_Voters":29,"Number_of_Phones":18,"Developer":"ASIAN, Inc.","Match":null,"Match_1":null}},{"type":"Feature","id":156,"geometry":{"type":"Point","coordinates":[-122.41840399999995,37.784034000000077]},"properties":{"OBJECTID":156,"Building_Address":"735 Ellis St","Latitude":37.784033999999998,"Longitude":-122.418404,"Number_of_Voters":22,"Number_of_Phones":11,"Developer":"ASIAN, Inc.","Match":null,"Match_1":null}},{"type":"Feature","id":157,"geometry":{"type":"Point","coordinates":[-122.39345129999998,37.776452000000063]},"properties":{"OBJECTID":157,"Building_Address":"255 King St","Latitude":37.776451999999999,"Longitude":-122.3934513,"Number_of_Voters":156,"Number_of_Phones":87,"Developer":"AvalonBay Communities","Match":null,"Match_1":null}},{"type":"Feature","id":158,"geometry":{"type":"Point","coordinates":[-122.41515299999998,37.777110900000025]},"properties":{"OBJECTID":158,"Building_Address":"55 9th St","Latitude":37.777110899999997,"Longitude":-122.415153,"Number_of_Voters":146,"Number_of_Phones":87,"Developer":"AvalonBay Communities","Match":null,"Match_1":null}},{"type":"Feature","id":159,"geometry":{"type":"Point","coordinates":[-122.39381109999999,37.775756100000081]},"properties":{"OBJECTID":159,"Building_Address":"301 King St","Latitude":37.775756100000002,"Longitude":-122.39381109999999,"Number_of_Voters":81,"Number_of_Phones":46,"Developer":"AvalonBay Communities","Match":null,"Match_1":null}},{"type":"Feature","id":160,"geometry":{"type":"Point","coordinates":[-122.44966099999999,37.770330000000058]},"properties":{"OBJECTID":160,"Building_Address":"1761 Page St","Latitude":37.770330000000001,"Longitude":-122.44966100000001,"Number_of_Voters":4,"Number_of_Phones":2,"Developer":"Baker Places Inc","Match":null,"Match_1":null}},{"type":"Feature","id":161,"geometry":{"type":"Point","coordinates":[-122.41587789999994,37.787532500000054]},"properties":{"OBJECTID":161,"Building_Address":"840 Post St","Latitude":37.787532499999998,"Longitude":-122.4158779,"Number_of_Voters":46,"Number_of_Phones":31,"Developer":"Bay Apartment Communities, Inc.","Match":null,"Match_1":null}},{"type":"Feature","id":162,"geometry":{"type":"Point","coordinates":[-122.40447259999996,37.777998500000024]},"properties":{"OBJECTID":162,"Building_Address":"363 6th St","Latitude":37.777998500000002,"Longitude":-122.40447260000001,"Number_of_Voters":51,"Number_of_Phones":28,"Developer":"Boris Fadeer/Clara/6th LLC","Match":null,"Match_1":null}},{"type":"Feature","id":163,"geometry":{"type":"Point","coordinates":[-122.42106129999996,37.77409810000006]},"properties":{"OBJECTID":163,"Building_Address":"31 Page St","Latitude":37.774098100000003,"Longitude":-122.42106130000001,"Number_of_Voters":26,"Number_of_Phones":13,"Developer":"Brian Spiers Development","Match":null,"Match_1":null}},{"type":"Feature","id":164,"geometry":{"type":"Point","coordinates":[-122.42164059999999,37.783068400000047]},"properties":{"OBJECTID":164,"Building_Address":"830 Eddy St","Latitude":37.783068399999998,"Longitude":-122.4216406,"Number_of_Voters":58,"Number_of_Phones":36,"Developer":"Build Inc","Match":null,"Match_1":null}},{"type":"Feature","id":165,"geometry":{"type":"Point","coordinates":[-122.40412619999995,37.772011300000031]},"properties":{"OBJECTID":165,"Building_Address":"855 Brannan St","Latitude":37.772011300000003,"Longitude":-122.40412619999999,"Number_of_Voters":168,"Number_of_Phones":89,"Developer":"BW Brannan St, LLC","Match":null,"Match_1":null}},{"type":"Feature","id":166,"geometry":{"type":"Point","coordinates":[-122.39235669999999,37.791795500000035]},"properties":{"OBJECTID":166,"Building_Address":"88 Howard St","Latitude":37.791795499999999,"Longitude":-122.39235669999999,"Number_of_Voters":149,"Number_of_Phones":83,"Developer":"Carmel Partners","Match":null,"Match_1":null}},{"type":"Feature","id":167,"geometry":{"type":"Point","coordinates":[-122.43270099999995,37.779740500000059]},"properties":{"OBJECTID":167,"Building_Address":"1340 Golden Gate Ave","Latitude":37.779740500000003,"Longitude":-122.43270099999999,"Number_of_Voters":6,"Number_of_Phones":3,"Developer":"Catholic Charities San Francisco","Match":null,"Match_1":null}},{"type":"Feature","id":168,"geometry":{"type":"Point","coordinates":[-122.37586589999995,37.826241000000039]},"properties":{"OBJECTID":168,"Building_Address":"1403 Sturgeon St","Latitude":37.826241000000003,"Longitude":-122.37586589999999,"Number_of_Voters":3,"Number_of_Phones":1,"Developer":"Catholic Charities San Francisco","Match":null,"Match_1":null}},{"type":"Feature","id":169,"geometry":{"type":"Point","coordinates":[-122.41476049999994,37.783453300000076]},"properties":{"OBJECTID":169,"Building_Address":"425 Eddy St","Latitude":37.783453299999998,"Longitude":-122.4147605,"Number_of_Voters":5,"Number_of_Phones":3,"Developer":"CATS","Match":null,"Match_1":null}},{"type":"Feature","id":170,"geometry":{"type":"Point","coordinates":[-122.42448489999998,37.764297600000077]},"properties":{"OBJECTID":170,"Building_Address":"424 Guerrero St","Latitude":37.764297599999999,"Longitude":-122.4244849,"Number_of_Voters":9,"Number_of_Phones":7,"Developer":"Center on Juvenile and Criminal Justice","Match":null,"Match_1":null}},{"type":"Feature","id":171,"geometry":{"type":"Point","coordinates":[-122.42307849999997,37.773711500000047]},"properties":{"OBJECTID":171,"Building_Address":"111 Page St","Latitude":37.773711499999997,"Longitude":-122.4230785,"Number_of_Voters":2,"Number_of_Phones":1,"Developer":"Compass Family Services","Match":null,"Match_1":null}},{"type":"Feature","id":172,"geometry":{"type":"Point","coordinates":[-122.41560119999997,37.783157600000038]},"properties":{"OBJECTID":172,"Building_Address":"240 Hyde St","Latitude":37.783157600000003,"Longitude":-122.4156012,"Number_of_Voters":31,"Number_of_Phones":18,"Developer":"Conard House, Inc.","Match":null,"Match_1":null}},{"type":"Feature","id":173,"geometry":{"type":"Point","coordinates":[-122.41208349999999,37.782657200000074]},"properties":{"OBJECTID":173,"Building_Address":"140 Jones St","Latitude":37.782657200000003,"Longitude":-122.41208349999999,"Number_of_Voters":21,"Number_of_Phones":7,"Developer":"Conard House, Inc.","Match":null,"Match_1":null}},{"type":"Feature","id":174,"geometry":{"type":"Point","coordinates":[-122.41433599999999,37.782545000000027]},"properties":{"OBJECTID":174,"Building_Address":"315 Turk St","Latitude":37.782544999999999,"Longitude":-122.41433600000001,"Number_of_Voters":1,"Number_of_Phones":0,"Developer":"Curry Senior Center","Match":null,"Match_1":null}},{"type":"Feature","id":175,"geometry":{"type":"Point","coordinates":[-122.38929339999999,37.761476400000049]},"properties":{"OBJECTID":175,"Building_Address":"815 Tennessee St","Latitude":37.761476399999999,"Longitude":-122.3892934,"Number_of_Voters":77,"Number_of_Phones":46,"Developer":"DM Development (AKA DM 815 Tennessee LLC)","Match":null,"Match_1":null}},{"type":"Feature","id":176,"geometry":{"type":"Point","coordinates":[-122.42075569999997,37.769344600000068]},"properties":{"OBJECTID":176,"Building_Address":"35 Woodward St","Latitude":37.769344599999997,"Longitude":-122.4207557,"Number_of_Voters":6,"Number_of_Phones":3,"Developer":"Dolores Street Community Services","Match":null,"Match_1":null}},{"type":"Feature","id":177,"geometry":{"type":"Point","coordinates":[-122.42692379999994,37.765816600000051]},"properties":{"OBJECTID":177,"Building_Address":"220 Dolores St","Latitude":37.765816600000001,"Longitude":-122.4269238,"Number_of_Voters":3,"Number_of_Phones":2,"Developer":"Dolores Street Community Services","Match":null,"Match_1":null}},{"type":"Feature","id":178,"geometry":{"type":"Point","coordinates":[-122.40990239999996,37.779814400000078]},"properties":{"OBJECTID":178,"Building_Address":"1045 Mission St","Latitude":37.779814399999999,"Longitude":-122.40990239999999,"Number_of_Voters":153,"Number_of_Phones":91,"Developer":"Emerald Fund, Inc.","Match":null,"Match_1":null}},{"type":"Feature","id":179,"geometry":{"type":"Point","coordinates":[-122.41833629999996,37.777723300000048]},"properties":{"OBJECTID":179,"Building_Address":"101 Polk St","Latitude":37.777723299999998,"Longitude":-122.41833630000001,"Number_of_Voters":115,"Number_of_Phones":75,"Developer":"Emerald Polk LLC","Match":null,"Match_1":null}},{"type":"Feature","id":180,"geometry":{"type":"Point","coordinates":[-122.41183999999998,37.780799400000035]},"properties":{"OBJECTID":180,"Building_Address":"1075 Market St","Latitude":37.780799399999999,"Longitude":-122.41184,"Number_of_Voters":47,"Number_of_Phones":34,"Developer":"Encore Market St LLC","Match":null,"Match_1":null}},{"type":"Feature","id":181,"geometry":{"type":"Point","coordinates":[-122.39690539999998,37.767032500000028]},"properties":{"OBJECTID":181,"Building_Address":"1010 16th St","Latitude":37.767032499999999,"Longitude":-122.39690539999999,"Number_of_Voters":222,"Number_of_Phones":116,"Developer":"EQR","Match":null,"Match_1":null}},{"type":"Feature","id":182,"geometry":{"type":"Point","coordinates":[-122.40975509999998,37.773476300000027]},"properties":{"OBJECTID":182,"Building_Address":"1222 Harrison St","Latitude":37.773476299999999,"Longitude":-122.4097551,"Number_of_Voters":201,"Number_of_Phones":104,"Developer":"Fairfield Residential","Match":null,"Match_1":null}},{"type":"Feature","id":183,"geometry":{"type":"Point","coordinates":[-122.43004659999997,37.766338300000029]},"properties":{"OBJECTID":183,"Building_Address":"2175 Market St","Latitude":37.766338300000001,"Longitude":-122.4300466,"Number_of_Voters":88,"Number_of_Phones":56,"Developer":"FC 2175 Market, LLC","Match":null,"Match_1":null}},{"type":"Feature","id":184,"geometry":{"type":"Point","coordinates":[-122.43129659999994,37.782270100000062]},"properties":{"OBJECTID":184,"Building_Address":"1223 Webster St","Latitude":37.782270099999998,"Longitude":-122.4312966,"Number_of_Voters":53,"Number_of_Phones":30,"Developer":"Fillmore Marketplace Associates, LP","Match":null,"Match_1":null}},{"type":"Feature","id":185,"geometry":{"type":"Point","coordinates":[-122.39633739999999,37.787118000000078]},"properties":{"OBJECTID":185,"Building_Address":"33 Tehama St","Latitude":37.787118,"Longitude":-122.39633739999999,"Number_of_Voters":12,"Number_of_Phones":9,"Developer":"Fritzi Realty","Match":null,"Match_1":null}},{"type":"Feature","id":186,"geometry":{"type":"Point","coordinates":[-122.42610909999996,37.778158100000041]},"properties":{"OBJECTID":186,"Building_Address":"555 Fulton St","Latitude":37.778158099999999,"Longitude":-122.42610910000001,"Number_of_Voters":112,"Number_of_Phones":74,"Developer":"Fulton Street Ventures, LLC","Match":null,"Match_1":null}},{"type":"Feature","id":187,"geometry":{"type":"Point","coordinates":[-122.41367639999999,37.786336300000073]},"properties":{"OBJECTID":187,"Building_Address":"639 Geary St","Latitude":37.786336300000002,"Longitude":-122.4136764,"Number_of_Voters":91,"Number_of_Phones":56,"Developer":"Geary Courtyard Associates","Match":null,"Match_1":null}},{"type":"Feature","id":188,"geometry":{"type":"Point","coordinates":[-122.46116939999996,37.710953800000027]},"properties":{"OBJECTID":188,"Building_Address":"149 Habitat Ter","Latitude":37.710953799999999,"Longitude":-122.4611694,"Number_of_Voters":7,"Number_of_Phones":7,"Developer":"Habitat for Humanity Greater San Francisco","Match":null,"Match_1":null}},{"type":"Feature","id":189,"geometry":{"type":"Point","coordinates":[-122.44329309999995,37.774058300000036]},"properties":{"OBJECTID":189,"Building_Address":"1631 Hayes St","Latitude":37.7740583,"Longitude":-122.44329310000001,"Number_of_Voters":14,"Number_of_Phones":8,"Developer":"Hamilton Families","Match":null,"Match_1":null}},{"type":"Feature","id":190,"geometry":{"type":"Point","coordinates":[-122.42186309999994,37.766801600000065]},"properties":{"OBJECTID":190,"Building_Address":"391 Valencia St","Latitude":37.766801600000001,"Longitude":-122.4218631,"Number_of_Voters":36,"Number_of_Phones":22,"Developer":"Housing Development & Neighborhood Preservation Corporation","Match":null,"Match_1":null}},{"type":"Feature","id":191,"geometry":{"type":"Point","coordinates":[-122.41347079999997,37.784100800000033]},"properties":{"OBJECTID":191,"Building_Address":"340 Eddy St","Latitude":37.784100799999997,"Longitude":-122.4134708,"Number_of_Voters":58,"Number_of_Phones":28,"Developer":"Indochinese Housing Development Corporation","Match":null,"Match_1":null}},{"type":"Feature","id":192,"geometry":{"type":"Point","coordinates":[-122.41372319999999,37.783606100000043]},"properties":{"OBJECTID":192,"Building_Address":"375 Eddy St","Latitude":37.7836061,"Longitude":-122.41372320000001,"Number_of_Voters":36,"Number_of_Phones":21,"Developer":"Indochinese Housing Development Corporation","Match":null,"Match_1":null}},{"type":"Feature","id":193,"geometry":{"type":"Point","coordinates":[-122.39729289999997,37.773058000000049]},"properties":{"OBJECTID":193,"Building_Address":"360 Berry St","Latitude":37.773057999999999,"Longitude":-122.3972929,"Number_of_Voters":92,"Number_of_Phones":51,"Developer":"Integral","Match":null,"Match_1":null}},{"type":"Feature","id":194,"geometry":{"type":"Point","coordinates":[-122.42691189999999,37.786580600000036]},"properties":{"OBJECTID":194,"Building_Address":"1615 Sutter St","Latitude":37.786580600000001,"Longitude":-122.42691189999999,"Number_of_Voters":78,"Number_of_Phones":40,"Developer":"Japanese American Religious Federation","Match":null,"Match_1":null}},{"type":"Feature","id":195,"geometry":{"type":"Point","coordinates":[-122.39441359999995,37.757802500000025]},"properties":{"OBJECTID":195,"Building_Address":"1300 22nd St","Latitude":37.757802499999997,"Longitude":-122.39441359999999,"Number_of_Voters":96,"Number_of_Phones":55,"Developer":"Jessie Stuart","Match":null,"Match_1":null}},{"type":"Feature","id":196,"geometry":{"type":"Point","coordinates":[-122.41310859999999,37.770430600000054]},"properties":{"OBJECTID":196,"Building_Address":"1532 Harrison St","Latitude":37.770430599999997,"Longitude":-122.4131086,"Number_of_Voters":64,"Number_of_Phones":37,"Developer":"Joe Peters; Build, Inc.","Match":null,"Match_1":null}},{"type":"Feature","id":197,"geometry":{"type":"Point","coordinates":[-122.39199309999998,37.71747460000006]},"properties":{"OBJECTID":197,"Building_Address":"859 Jamestown Ave","Latitude":37.717474600000003,"Longitude":-122.39199309999999,"Number_of_Voters":8,"Number_of_Phones":4,"Developer":"L+M Development Partners Inc.","Match":null,"Match_1":null}},{"type":"Feature","id":198,"geometry":{"type":"Point","coordinates":[-122.41595059999997,37.782046200000025]},"properties":{"OBJECTID":198,"Building_Address":"129 Hyde St","Latitude":37.782046200000003,"Longitude":-122.4159506,"Number_of_Voters":3,"Number_of_Phones":1,"Developer":"Larkin Street Youth Services","Match":null,"Match_1":null}},{"type":"Feature","id":199,"geometry":{"type":"Point","coordinates":[-122.41122669999999,37.781833800000072]},"properties":{"OBJECTID":199,"Building_Address":"1028 Market St","Latitude":37.781833800000001,"Longitude":-122.4112267,"Number_of_Voters":65,"Number_of_Phones":43,"Developer":"LCL Global-1028 Market Street, LLC","Match":null,"Match_1":null}},{"type":"Feature","id":200,"geometry":{"type":"Point","coordinates":[-122.42373919999994,37.782354800000064]},"properties":{"OBJECTID":200,"Building_Address":"971 Eddy St","Latitude":37.7823548,"Longitude":-122.4237392,"Number_of_Voters":60,"Number_of_Phones":39,"Developer":"Maracor Development, Inc.","Match":null,"Match_1":null}},{"type":"Feature","id":201,"geometry":{"type":"Point","coordinates":[-122.41816759999995,37.78438170000004]},"properties":{"OBJECTID":201,"Building_Address":"710 Ellis St","Latitude":37.784381699999997,"Longitude":-122.4181676,"Number_of_Voters":12,"Number_of_Phones":4,"Developer":"Marathon Hotel & Appartments, LLC","Match":null,"Match_1":null}},{"type":"Feature","id":202,"geometry":{"type":"Point","coordinates":[-122.41450749999996,37.789713500000062]},"properties":{"OBJECTID":202,"Building_Address":"1040 Bush St","Latitude":37.789713499999998,"Longitude":-122.4145075,"Number_of_Voters":48,"Number_of_Phones":27,"Developer":"Mary Elizabeth Inn","Match":null,"Match_1":null}},{"type":"Feature","id":203,"geometry":{"type":"Point","coordinates":[-122.38437849999997,37.719578200000058]},"properties":{"OBJECTID":203,"Building_Address":"2500 Arelious Walker Dr","Latitude":37.719578200000001,"Longitude":-122.3843785,"Number_of_Voters":138,"Number_of_Phones":81,"Developer":"McCormack Baron Management","Match":null,"Match_1":null}},{"type":"Feature","id":204,"geometry":{"type":"Point","coordinates":[-122.38586059999994,37.718535200000076]},"properties":{"OBJECTID":204,"Building_Address":"2700 Arelious Walker Dr","Latitude":37.718535199999998,"Longitude":-122.3858606,"Number_of_Voters":89,"Number_of_Phones":64,"Developer":"McCormack Baron Management","Match":null,"Match_1":null}},{"type":"Feature","id":205,"geometry":{"type":"Point","coordinates":[-122.39560109999996,37.725759900000071]},"properties":{"OBJECTID":205,"Building_Address":"1751 Carroll Ave","Latitude":37.7257599,"Longitude":-122.39560109999999,"Number_of_Voters":87,"Number_of_Phones":58,"Developer":"McCormack Baron Management","Match":null,"Match_1":null}},{"type":"Feature","id":206,"geometry":{"type":"Point","coordinates":[-122.38535449999995,37.718916400000069]},"properties":{"OBJECTID":206,"Building_Address":"2600 Arelious Walker Dr","Latitude":37.718916399999998,"Longitude":-122.38535450000001,"Number_of_Voters":83,"Number_of_Phones":53,"Developer":"McCormack Baron Management","Match":null,"Match_1":null}},{"type":"Feature","id":207,"geometry":{"type":"Point","coordinates":[-122.38836219999996,37.762686700000074]},"properties":{"OBJECTID":207,"Building_Address":"2121 3rd St","Latitude":37.762686700000003,"Longitude":-122.3883622,"Number_of_Voters":89,"Number_of_Phones":50,"Developer":"MCRT Mission Piers, LCC","Match":null,"Match_1":null}},{"type":"Feature","id":208,"geometry":{"type":"Point","coordinates":[-122.39171579999999,37.761792300000025]},"properties":{"OBJECTID":208,"Building_Address":"680 Indiana St","Latitude":37.761792300000003,"Longitude":-122.3917158,"Number_of_Voters":32,"Number_of_Phones":18,"Developer":"Michael Yarne/Build Inc","Match":null,"Match_1":null}},{"type":"Feature","id":209,"geometry":{"type":"Point","coordinates":[-122.41887799999995,37.762543700000037]},"properties":{"OBJECTID":209,"Building_Address":"2155 Mission St","Latitude":37.762543700000002,"Longitude":-122.41887800000001,"Number_of_Voters":54,"Number_of_Phones":28,"Developer":"OBECA","Match":null,"Match_1":null}},{"type":"Feature","id":210,"geometry":{"type":"Point","coordinates":[-122.42336969999997,37.789549700000066]},"properties":{"OBJECTID":210,"Building_Address":"1688 Pine St","Latitude":37.789549700000002,"Longitude":-122.42336969999999,"Number_of_Voters":227,"Number_of_Phones":148,"Developer":"Oyster Development Corp.","Match":null,"Match_1":null}},{"type":"Feature","id":211,"geometry":{"type":"Point","coordinates":[-122.41411809999994,37.770748800000035]},"properties":{"OBJECTID":211,"Building_Address":"333 12th St","Latitude":37.7707488,"Longitude":-122.4141181,"Number_of_Voters":64,"Number_of_Phones":33,"Developer":"Panoramic Interests","Match":null,"Match_1":null}},{"type":"Feature","id":212,"geometry":{"type":"Point","coordinates":[-122.40624259999998,37.711980900000071]},"properties":{"OBJECTID":212,"Building_Address":"141 Leland Ave","Latitude":37.7119809,"Longitude":-122.4062426,"Number_of_Voters":9,"Number_of_Phones":5,"Developer":"Positive Resource Center","Match":null,"Match_1":null}},{"type":"Feature","id":213,"geometry":{"type":"Point","coordinates":[-122.42584549999998,37.782523400000059]},"properties":{"OBJECTID":213,"Building_Address":"1096 Eddy St","Latitude":37.782523400000002,"Longitude":-122.42584549999999,"Number_of_Voters":20,"Number_of_Phones":14,"Developer":"Progress Foundation","Match":null,"Match_1":null}},{"type":"Feature","id":214,"geometry":{"type":"Point","coordinates":[-122.50986359999996,37.773930500000063]},"properties":{"OBJECTID":214,"Building_Address":"770 La Playa St","Latitude":37.773930499999999,"Longitude":-122.5098636,"Number_of_Voters":14,"Number_of_Phones":8,"Developer":"Progress Foundation","Match":null,"Match_1":null}},{"type":"Feature","id":215,"geometry":{"type":"Point","coordinates":[-122.43326379999996,37.783070100000032]},"properties":{"OBJECTID":215,"Building_Address":"1475 Fillmore St","Latitude":37.783070100000003,"Longitude":-122.43326380000001,"Number_of_Voters":1,"Number_of_Phones":0,"Developer":"Prudential","Match":null,"Match_1":null}},{"type":"Feature","id":216,"geometry":{"type":"Point","coordinates":[-122.41598769999996,37.77491150000003]},"properties":{"OBJECTID":216,"Building_Address":"1401 Mission St","Latitude":37.774911500000002,"Longitude":-122.4159877,"Number_of_Voters":63,"Number_of_Phones":37,"Developer":"R&K Investments","Match":null,"Match_1":null}},{"type":"Feature","id":217,"geometry":{"type":"Point","coordinates":[-122.38836399999997,37.763809900000069]},"properties":{"OBJECTID":217,"Building_Address":"2051 3rd St","Latitude":37.763809899999998,"Longitude":-122.388364,"Number_of_Voters":63,"Number_of_Phones":37,"Developer":"Raintree 2051 Third Street LLC","Match":null,"Match_1":null}},{"type":"Feature","id":218,"geometry":{"type":"Point","coordinates":[-122.41388939999996,37.783979100000067]},"properties":{"OBJECTID":218,"Building_Address":"380 Eddy St","Latitude":37.783979100000003,"Longitude":-122.4138894,"Number_of_Voters":55,"Number_of_Phones":27,"Developer":"Reality House West","Match":null,"Match_1":null}},{"type":"Feature","id":219,"geometry":{"type":"Point","coordinates":[-122.37752029999996,37.729704300000037]},"properties":{"OBJECTID":219,"Building_Address":"50 Reardon Rd","Latitude":37.729704300000002,"Longitude":-122.3775203,"Number_of_Voters":5,"Number_of_Phones":2,"Developer":"Reardon Heights Associates, LP","Match":null,"Match_1":null}},{"type":"Feature","id":220,"geometry":{"type":"Point","coordinates":[-122.41854349999994,37.773673000000031]},"properties":{"OBJECTID":220,"Building_Address":"1550 Mission St","Latitude":37.773673000000002,"Longitude":-122.4185435,"Number_of_Voters":287,"Number_of_Phones":164,"Developer":"Related California","Match":null,"Match_1":null}},{"type":"Feature","id":221,"geometry":{"type":"Point","coordinates":[-122.40013589999995,37.76347080000005]},"properties":{"OBJECTID":221,"Building_Address":"1601 Mariposa St","Latitude":37.7634708,"Longitude":-122.4001359,"Number_of_Voters":108,"Number_of_Phones":55,"Developer":"Related California","Match":null,"Match_1":null}},{"type":"Feature","id":222,"geometry":{"type":"Point","coordinates":[-122.39394579999998,37.78811520000005]},"properties":{"OBJECTID":222,"Building_Address":"250 Fremont St","Latitude":37.7881152,"Longitude":-122.3939458,"Number_of_Voters":57,"Number_of_Phones":31,"Developer":"Related California","Match":null,"Match_1":null}},{"type":"Feature","id":223,"geometry":{"type":"Point","coordinates":[-122.41588879999995,37.711625400000059]},"properties":{"OBJECTID":223,"Building_Address":"1491 Sunnydale Ave","Latitude":37.711625400000003,"Longitude":-122.4158888,"Number_of_Voters":52,"Number_of_Phones":30,"Developer":"Related California","Match":null,"Match_1":null}},{"type":"Feature","id":224,"geometry":{"type":"Point","coordinates":[-122.43689539999997,37.780319100000042]},"properties":{"OBJECTID":224,"Building_Address":"1150 Scott St","Latitude":37.7803191,"Longitude":-122.4368954,"Number_of_Voters":2,"Number_of_Phones":2,"Developer":"Related California","Match":null,"Match_1":null}},{"type":"Feature","id":225,"geometry":{"type":"Point","coordinates":[-122.45393359999997,37.709984700000064]},"properties":{"OBJECTID":225,"Building_Address":"168 Sickles Ave","Latitude":37.7099847,"Longitude":-122.4539336,"Number_of_Voters":15,"Number_of_Phones":7,"Developer":"San Francisco Housing Development Corporation","Match":null,"Match_1":null}},{"type":"Feature","id":226,"geometry":{"type":"Point","coordinates":[-122.41243749999995,37.797063600000058]},"properties":{"OBJECTID":226,"Building_Address":"1483 Mason St","Latitude":37.797063600000001,"Longitude":-122.4124375,"Number_of_Voters":31,"Number_of_Phones":4,"Developer":"Self Help For The Elderly","Match":null,"Match_1":null}},{"type":"Feature","id":227,"geometry":{"type":"Point","coordinates":[-122.41408279999996,37.787481000000071]},"properties":{"OBJECTID":227,"Building_Address":"737 Post St","Latitude":37.787481,"Longitude":-122.4140828,"Number_of_Voters":117,"Number_of_Phones":67,"Developer":"Sequoia Equities, Inc","Match":null,"Match_1":null}},{"type":"Feature","id":228,"geometry":{"type":"Point","coordinates":[-122.42729529999997,37.782724600000051]},"properties":{"OBJECTID":228,"Building_Address":"1280 Laguna St","Latitude":37.782724600000002,"Longitude":-122.4272953,"Number_of_Voters":126,"Number_of_Phones":64,"Developer":"Sequoia Living","Match":null,"Match_1":null}},{"type":"Feature","id":229,"geometry":{"type":"Point","coordinates":[-122.40754059999995,37.76351550000004]},"properties":{"OBJECTID":229,"Building_Address":"480 Potrero Ave","Latitude":37.763515499999997,"Longitude":-122.4075406,"Number_of_Voters":54,"Number_of_Phones":30,"Developer":"Sia Consulting Corp","Match":null,"Match_1":null}},{"type":"Feature","id":230,"geometry":{"type":"Point","coordinates":[-122.38928759999999,37.782084600000076]},"properties":{"OBJECTID":230,"Building_Address":"2 Townsend St","Latitude":37.782084599999997,"Longitude":-122.3892876,"Number_of_Voters":201,"Number_of_Phones":109,"Developer":"South Beach Marina, Inc.","Match":null,"Match_1":null}},{"type":"Feature","id":231,"geometry":{"type":"Point","coordinates":[-122.42598369999996,37.787506200000053]},"properties":{"OBJECTID":231,"Building_Address":"1550 Sutter St","Latitude":37.787506200000003,"Longitude":-122.4259837,"Number_of_Voters":68,"Number_of_Phones":39,"Developer":"SRG Senior Living","Match":null,"Match_1":null}},{"type":"Feature","id":232,"geometry":{"type":"Point","coordinates":[-122.40472729999999,37.778170500000044]},"properties":{"OBJECTID":232,"Building_Address":"345 6th St","Latitude":37.778170500000002,"Longitude":-122.4047273,"Number_of_Voters":32,"Number_of_Phones":18,"Developer":"SST Investments","Match":null,"Match_1":null}},{"type":"Feature","id":233,"geometry":{"type":"Point","coordinates":[-122.42482609999996,37.78744800000004]},"properties":{"OBJECTID":233,"Building_Address":"1480 Sutter St","Latitude":37.787447999999998,"Longitude":-122.4248261,"Number_of_Voters":45,"Number_of_Phones":20,"Developer":"Sutter Gough, LP","Match":null,"Match_1":null}},{"type":"Feature","id":234,"geometry":{"type":"Point","coordinates":[-122.38152599999995,37.736764400000027]},"properties":{"OBJECTID":234,"Building_Address":"1101 Fairfax Ave","Latitude":37.736764399999998,"Longitude":-122.38152599999999,"Number_of_Voters":90,"Number_of_Phones":42,"Developer":"The John Stewart Company (delete)","Match":null,"Match_1":null}},{"type":"Feature","id":235,"geometry":{"type":"Point","coordinates":[-122.42654539999995,37.78805310000007]},"properties":{"OBJECTID":235,"Building_Address":"1760 Bush St","Latitude":37.788053099999999,"Longitude":-122.42654539999999,"Number_of_Voters":81,"Number_of_Phones":44,"Developer":"The John Stewart Company (delete)","Match":null,"Match_1":null}},{"type":"Feature","id":236,"geometry":{"type":"Point","coordinates":[-122.38073669999994,37.735368400000027]},"properties":{"OBJECTID":236,"Building_Address":"901 Fairfax Ave","Latitude":37.735368399999999,"Longitude":-122.3807367,"Number_of_Voters":78,"Number_of_Phones":42,"Developer":"The John Stewart Company (delete)","Match":null,"Match_1":null}},{"type":"Feature","id":237,"geometry":{"type":"Point","coordinates":[-122.49134959999998,37.780220800000052]},"properties":{"OBJECTID":237,"Building_Address":"491 31st Ave","Latitude":37.780220800000002,"Longitude":-122.49134960000001,"Number_of_Voters":37,"Number_of_Phones":23,"Developer":"The John Stewart Company (delete)","Match":null,"Match_1":null}},{"type":"Feature","id":238,"geometry":{"type":"Point","coordinates":[-122.44604019999997,37.784095200000024]},"properties":{"OBJECTID":238,"Building_Address":"800 Presidio Ave","Latitude":37.784095200000003,"Longitude":-122.4460402,"Number_of_Voters":1,"Number_of_Phones":0,"Developer":"The John Stewart Company (delete)","Match":null,"Match_1":null}},{"type":"Feature","id":239,"geometry":{"type":"Point","coordinates":[-122.40165789999998,37.78671810000003]},"properties":{"OBJECTID":239,"Building_Address":"680 Mission St","Latitude":37.786718100000002,"Longitude":-122.4016579,"Number_of_Voters":233,"Number_of_Phones":142,"Developer":"Third & Mission Associates, LLC","Match":null,"Match_1":null}},{"type":"Feature","id":240,"geometry":{"type":"Point","coordinates":[-122.39585029999995,37.724961900000039]},"properties":{"OBJECTID":240,"Building_Address":"5880 3rd St","Latitude":37.724961899999997,"Longitude":-122.39585030000001,"Number_of_Voters":101,"Number_of_Phones":63,"Developer":"Third Street Equity Partners","Match":null,"Match_1":null}},{"type":"Feature","id":241,"geometry":{"type":"Point","coordinates":[-122.41381269999999,37.778208200000051]},"properties":{"OBJECTID":241,"Building_Address":"33 8th St","Latitude":37.778208200000002,"Longitude":-122.41381269999999,"Number_of_Voters":316,"Number_of_Phones":182,"Developer":"Trinity Properties","Match":null,"Match_1":null}},{"type":"Feature","id":242,"geometry":{"type":"Point","coordinates":[-122.40776059999996,37.765200200000038]},"properties":{"OBJECTID":242,"Building_Address":"338 Potrero Ave","Latitude":37.765200200000002,"Longitude":-122.4077606,"Number_of_Voters":67,"Number_of_Phones":39,"Developer":"Trumark Urban","Match":null,"Match_1":null}},{"type":"Feature","id":243,"geometry":{"type":"Point","coordinates":[-122.42229879999996,37.792346900000041]},"properties":{"OBJECTID":243,"Building_Address":"1788 Clay St","Latitude":37.792346899999998,"Longitude":-122.42229879999999,"Number_of_Voters":93,"Number_of_Phones":53,"Developer":"Van Ness Clay, LLC/Oyster Development Corporation","Match":null,"Match_1":null}},{"type":"Feature","id":244,"geometry":{"type":"Point","coordinates":[-122.41883379999996,37.777218900000037]},"properties":{"OBJECTID":244,"Building_Address":"150 Van Ness Ave","Latitude":37.777218900000001,"Longitude":-122.4188338,"Number_of_Voters":214,"Number_of_Phones":133,"Developer":"Van Ness Hayes Associates, LLC","Match":null,"Match_1":null}},{"type":"Feature","id":245,"geometry":{"type":"Point","coordinates":[-122.42451569999997,37.774622400000055]},"properties":{"OBJECTID":245,"Building_Address":"261 Octavia St","Latitude":37.774622399999998,"Longitude":-122.4245157,"Number_of_Voters":16,"Number_of_Phones":8,"Developer":"West Bay Housing Corporation","Match":null,"Match_1":null}},{"type":"Feature","id":246,"geometry":{"type":"Point","coordinates":[-122.39367159999995,37.777626600000076]},"properties":{"OBJECTID":246,"Building_Address":"260 King St","Latitude":37.777626599999998,"Longitude":-122.3936716,"Number_of_Voters":229,"Number_of_Phones":144,"Developer":null,"Match":null,"Match_1":null}},{"type":"Feature","id":247,"geometry":{"type":"Point","coordinates":[-122.39316059999999,37.778221400000064]},"properties":{"OBJECTID":247,"Building_Address":"250 King St","Latitude":37.7782214,"Longitude":-122.3931606,"Number_of_Voters":226,"Number_of_Phones":144,"Developer":null,"Match":null,"Match_1":null}},{"type":"Feature","id":248,"geometry":{"type":"Point","coordinates":[-122.39346519999998,37.786887000000036]},"properties":{"OBJECTID":248,"Building_Address":"355 1st St","Latitude":37.786887,"Longitude":-122.39346519999999,"Number_of_Voters":178,"Number_of_Phones":103,"Developer":null,"Match":null,"Match_1":null}},{"type":"Feature","id":249,"geometry":{"type":"Point","coordinates":[-122.39065279999994,37.771308100000056]},"properties":{"OBJECTID":249,"Building_Address":"588 Mission Bay Blvd","Latitude":37.771308099999999,"Longitude":-122.3906528,"Number_of_Voters":173,"Number_of_Phones":95,"Developer":null,"Match":null,"Match_1":null}},{"type":"Feature","id":250,"geometry":{"type":"Point","coordinates":[-122.42287519999996,37.79620680000005]},"properties":{"OBJECTID":250,"Building_Address":"1590 Broadway ","Latitude":37.7962068,"Longitude":-122.42287519999999,"Number_of_Voters":143,"Number_of_Phones":54,"Developer":null,"Match":null,"Match_1":null}},{"type":"Feature","id":251,"geometry":{"type":"Point","coordinates":[-122.39399859999997,37.787272900000062]},"properties":{"OBJECTID":251,"Building_Address":"333 1st St","Latitude":37.787272899999998,"Longitude":-122.3939986,"Number_of_Voters":128,"Number_of_Phones":88,"Developer":null,"Match":null,"Match_1":null}},{"type":"Feature","id":252,"geometry":{"type":"Point","coordinates":[-122.39541179999998,37.727537100000063]},"properties":{"OBJECTID":252,"Building_Address":"1780 Bancroft Ave","Latitude":37.727537099999999,"Longitude":-122.39541180000001,"Number_of_Voters":122,"Number_of_Phones":59,"Developer":null,"Match":null,"Match_1":null}},{"type":"Feature","id":253,"geometry":{"type":"Point","coordinates":[-122.41851909999997,37.771591500000056]},"properties":{"OBJECTID":253,"Building_Address":"140 SVan Ness Ave","Latitude":37.7715915,"Longitude":-122.4185191,"Number_of_Voters":117,"Number_of_Phones":76,"Developer":null,"Match":null,"Match_1":null}},{"type":"Feature","id":254,"geometry":{"type":"Point","coordinates":[-122.39169009999995,37.771177800000032]},"properties":{"OBJECTID":254,"Building_Address":"626 Mission Bay Blvd","Latitude":37.771177799999997,"Longitude":-122.39169010000001,"Number_of_Voters":116,"Number_of_Phones":59,"Developer":null,"Match":null,"Match_1":null}},{"type":"Feature","id":255,"geometry":{"type":"Point","coordinates":[-122.41779129999998,37.764634600000079]},"properties":{"OBJECTID":255,"Building_Address":"520 SVan Ness Ave","Latitude":37.764634600000001,"Longitude":-122.4177913,"Number_of_Voters":113,"Number_of_Phones":42,"Developer":null,"Match":null,"Match_1":null}},{"type":"Feature","id":256,"geometry":{"type":"Point","coordinates":[-122.40977689999994,37.781541300000072]},"properties":{"OBJECTID":256,"Building_Address":"34 6th St","Latitude":37.781541300000001,"Longitude":-122.4097769,"Number_of_Voters":109,"Number_of_Phones":57,"Developer":null,"Match":null,"Match_1":null}},{"type":"Feature","id":257,"geometry":{"type":"Point","coordinates":[-122.39457839999994,37.726981800000033]},"properties":{"OBJECTID":257,"Building_Address":"1740 Bancroft Ave","Latitude":37.726981799999997,"Longitude":-122.3945784,"Number_of_Voters":109,"Number_of_Phones":58,"Developer":null,"Match":null,"Match_1":null}},{"type":"Feature","id":258,"geometry":{"type":"Point","coordinates":[-122.39654889999997,37.773524400000042]},"properties":{"OBJECTID":258,"Building_Address":"330 Berry St","Latitude":37.773524399999999,"Longitude":-122.3965489,"Number_of_Voters":104,"Number_of_Phones":53,"Developer":null,"Match":null,"Match_1":null}},{"type":"Feature","id":259,"geometry":{"type":"Point","coordinates":[-122.39624159999994,37.773081900000079]},"properties":{"OBJECTID":259,"Building_Address":"335 Berry St","Latitude":37.773081900000001,"Longitude":-122.3962416,"Number_of_Voters":99,"Number_of_Phones":57,"Developer":null,"Match":null,"Match_1":null}},{"type":"Feature","id":260,"geometry":{"type":"Point","coordinates":[-122.42252819999999,37.780484000000058]},"properties":{"OBJECTID":260,"Building_Address":"701 Golden Gate Ave","Latitude":37.780484000000001,"Longitude":-122.4225282,"Number_of_Voters":94,"Number_of_Phones":35,"Developer":null,"Match":null,"Match_1":null}},{"type":"Feature","id":261,"geometry":{"type":"Point","coordinates":[-122.40261619999995,37.78224780000005]},"properties":{"OBJECTID":261,"Building_Address":"320 Clementina St","Latitude":37.7822478,"Longitude":-122.4026162,"Number_of_Voters":89,"Number_of_Phones":46,"Developer":null,"Match":null,"Match_1":null}},{"type":"Feature","id":262,"geometry":{"type":"Point","coordinates":[-122.41226049999995,37.783719500000075]},"properties":{"OBJECTID":262,"Building_Address":"240 Jones St","Latitude":37.783719499999997,"Longitude":-122.4122605,"Number_of_Voters":85,"Number_of_Phones":28,"Developer":null,"Match":null,"Match_1":null}},{"type":"Feature","id":263,"geometry":{"type":"Point","coordinates":[-122.40246599999995,37.782027200000073]},"properties":{"OBJECTID":263,"Building_Address":"330 Clementina St","Latitude":37.782027200000002,"Longitude":-122.402466,"Number_of_Voters":84,"Number_of_Phones":44,"Developer":null,"Match":null,"Match_1":null}},{"type":"Feature","id":264,"geometry":{"type":"Point","coordinates":[-122.50996919999994,37.774397600000043]},"properties":{"OBJECTID":264,"Building_Address":"740 La Playa St","Latitude":37.7743976,"Longitude":-122.5099692,"Number_of_Voters":78,"Number_of_Phones":51,"Developer":null,"Match":null,"Match_1":null}},{"type":"Feature","id":265,"geometry":{"type":"Point","coordinates":[-122.42123039999996,37.789280800000029]},"properties":{"OBJECTID":265,"Building_Address":"1545 Pine St","Latitude":37.7892808,"Longitude":-122.4212304,"Number_of_Voters":76,"Number_of_Phones":47,"Developer":null,"Match":null,"Match_1":null}},{"type":"Feature","id":266,"geometry":{"type":"Point","coordinates":[-122.40187019999996,37.798319800000058]},"properties":{"OBJECTID":266,"Building_Address":"255 Broadway ","Latitude":37.798319800000002,"Longitude":-122.4018702,"Number_of_Voters":75,"Number_of_Phones":31,"Developer":null,"Match":null,"Match_1":null}},{"type":"Feature","id":267,"geometry":{"type":"Point","coordinates":[-122.39022049999994,37.71082720000004]},"properties":{"OBJECTID":267,"Building_Address":"1 Crescent Way","Latitude":37.710827199999997,"Longitude":-122.3902205,"Number_of_Voters":75,"Number_of_Phones":48,"Developer":null,"Match":null,"Match_1":null}},{"type":"Feature","id":268,"geometry":{"type":"Point","coordinates":[-122.40966409999999,37.796351400000049]},"properties":{"OBJECTID":268,"Building_Address":"895 Pacific Ave","Latitude":37.796351399999999,"Longitude":-122.4096641,"Number_of_Voters":70,"Number_of_Phones":27,"Developer":null,"Match":null,"Match_1":null}},{"type":"Feature","id":269,"geometry":{"type":"Point","coordinates":[-122.40764239999999,37.79673310000004]},"properties":{"OBJECTID":269,"Building_Address":"795 Pacific Ave","Latitude":37.796733099999997,"Longitude":-122.4076424,"Number_of_Voters":68,"Number_of_Phones":36,"Developer":null,"Match":null,"Match_1":null}},{"type":"Feature","id":270,"geometry":{"type":"Point","coordinates":[-122.38933769999994,37.710837200000071]},"properties":{"OBJECTID":270,"Building_Address":"101 Crescent Way","Latitude":37.7108372,"Longitude":-122.3893377,"Number_of_Voters":66,"Number_of_Phones":38,"Developer":null,"Match":null,"Match_1":null}},{"type":"Feature","id":271,"geometry":{"type":"Point","coordinates":[-122.40721609999997,37.780058900000029]},"properties":{"OBJECTID":271,"Building_Address":"988 Howard St","Latitude":37.7800589,"Longitude":-122.4072161,"Number_of_Voters":57,"Number_of_Phones":28,"Developer":null,"Match":null,"Match_1":null}},{"type":"Feature","id":272,"geometry":{"type":"Point","coordinates":[-122.40772499999997,37.796633100000065]},"properties":{"OBJECTID":272,"Building_Address":"711 Pacific Ave","Latitude":37.796633100000001,"Longitude":-122.407725,"Number_of_Voters":57,"Number_of_Phones":23,"Developer":null,"Match":null,"Match_1":null}},{"type":"Feature","id":273,"geometry":{"type":"Point","coordinates":[-122.38922709999997,37.781361100000026]},"properties":{"OBJECTID":273,"Building_Address":"49 Townsend St","Latitude":37.781361099999998,"Longitude":-122.3892271,"Number_of_Voters":55,"Number_of_Phones":24,"Developer":null,"Match":null,"Match_1":null}},{"type":"Feature","id":274,"geometry":{"type":"Point","coordinates":[-122.40613199999996,37.796825100000035]},"properties":{"OBJECTID":274,"Building_Address":"655 Pacific Ave","Latitude":37.7968251,"Longitude":-122.406132,"Number_of_Voters":54,"Number_of_Phones":17,"Developer":null,"Match":null,"Match_1":null}},{"type":"Feature","id":275,"geometry":{"type":"Point","coordinates":[-122.40959379999998,37.778628500000025]},"properties":{"OBJECTID":275,"Building_Address":"587 Natoma St","Latitude":37.778628500000003,"Longitude":-122.4095938,"Number_of_Voters":51,"Number_of_Phones":30,"Developer":null,"Match":null,"Match_1":null}},{"type":"Feature","id":276,"geometry":{"type":"Point","coordinates":[-122.41781349999997,37.76550270000007]},"properties":{"OBJECTID":276,"Building_Address":"490 SVan Ness Ave","Latitude":37.765502699999999,"Longitude":-122.41781349999999,"Number_of_Voters":47,"Number_of_Phones":30,"Developer":null,"Match":null,"Match_1":null}},{"type":"Feature","id":277,"geometry":{"type":"Point","coordinates":[-122.41295919999999,37.784007700000075]},"properties":{"OBJECTID":277,"Building_Address":"308 Eddy St","Latitude":37.784007699999997,"Longitude":-122.4129592,"Number_of_Voters":46,"Number_of_Phones":17,"Developer":null,"Match":null,"Match_1":null}},{"type":"Feature","id":278,"geometry":{"type":"Point","coordinates":[-122.40935909999996,37.781047600000079]},"properties":{"OBJECTID":278,"Building_Address":"74 6th St","Latitude":37.781047600000001,"Longitude":-122.4093591,"Number_of_Voters":45,"Number_of_Phones":16,"Developer":null,"Match":null,"Match_1":null}},{"type":"Feature","id":279,"geometry":{"type":"Point","coordinates":[-122.40863209999998,37.777687900000046]},"properties":{"OBJECTID":279,"Building_Address":"227 7th St","Latitude":37.777687899999997,"Longitude":-122.40863210000001,"Number_of_Voters":44,"Number_of_Phones":25,"Developer":null,"Match":null,"Match_1":null}},{"type":"Feature","id":280,"geometry":{"type":"Point","coordinates":[-122.41314549999998,37.783075200000042]},"properties":{"OBJECTID":280,"Building_Address":"242 Turk St","Latitude":37.783075199999999,"Longitude":-122.4131455,"Number_of_Voters":43,"Number_of_Phones":31,"Developer":null,"Match":null,"Match_1":null}},{"type":"Feature","id":281,"geometry":{"type":"Point","coordinates":[-122.41057889999996,37.779279900000063]},